,br,inserent_plz,title,inserent_location,clicks7d,label,lat,lng
0,38073246,10318,Technischer Zeichner / Technischer Systemplaner Fachrichtung HLS (m/w/d),Berlin,33,0,52.4810357,13.5186468
1,39993622,38112,Head* of Distribution Logistics,Braunschweig,35,0,52.3073694,10.4762485
2,42568896,80686,Kfz-Mechatroniker als Straßenwachtfahrer (m/w/d),München,55,0,48.1288628,11.5089621
3,38615244,40789,Agile Coach / Scrum Master (m/w/d),Monheim,42,0,51.0966108,6.8974365
4,38885691,44269,Junior Consultant SAP Logistik (w/m/d),Dortmund,44,0,51.4918437,7.5319762
5,41638763,60327,Elektroniker:in (m/w/d) - Energie- und Gebäudetechnik,Frankfurt,24,0,50.1005233,8.6544487
6,35855724,82041,Senior IT Administrator (w/m/x),Oberhaching,34,0,48.0248492,11.5681464
7,43551829,48599,Junior Controller (m/w/d),Gronau,26,0,52.1841199,7.028936099999999
8,41838840,63303,Sales Manager (m/w/d) EMEA - Netzwerktechnik,Dreieich,22,0,50.0295097,8.69492
9,35154676,47228,(Senior) Technology Controller (m/f/d),Duisburg,27,0,51.4237748,6.698690000000001
10,38248760,94469,Gruppenleiter:in (d/m/w) für die Forschungsgruppe Leistungselektronik,Deggendorf,27,0,48.8456799,12.9779283
11,38073502,53119,Sachbearbeiterin / Sachbearbeiter Produktbetreuung und Entwicklung SAP BW/BO (w/m/d),Bonn,32,0,50.74391139999999,7.0627318
12,39157795,6108,Fachingenieur Elektrotechnik (m/w/d),Halle,29,0,51.4872577,11.9600411
13,40375391,55270,Senior Specialist Quality Assurance (m/w/d),Schwabenheim,32,0,49.9479376,8.1582778
14,37970171,64372,Senior Expert (m/w/d) Talent Development,Ober-Ramstadt,25,0,49.8221211,8.749378499999999
15,41115089,60431,Senior Analyst (m/w/d) für den digitalen Zahlungsverkehr,Frankfurt,37,0,50.1475439,8.6491154
16,41250978,30519,Mitarbeiter für die Funktionsstelle IT-Prozesse GKV Stationär (m/w/d),Hannover,36,0,52.3358144,9.7737388
17,36145997,65926,IT-Specialist im Bereich Netzwerkbetrieb und Fehleranalyse (m/w/d),Frankfurt,35,0,,
18,36229622,82024,Systemingenieur*in optische / optronische Systeme (w/m/d),Taufkirchen,35,0,48.0389787,11.6265608
19,40133430,55131,Buchhalter*in (m/w/d),Mainz,63,0,49.9889241,8.2716688
20,38074240,80807,Prozessentwicklungsingenieur*in (d/m/w) Schleifen und Polieren,München,22,0,48.1865394,11.585399
21,38171519,56242,Group Controller International (m/w/div.),Selters,12,0,50.53048260000001,7.7528226
22,42559625,64285,Sachgebietsleitung Umsatzsteuer (m/w/d),Darmstadt,36,0,49.8537341,8.656811
23,36387531,96450,Leiter:in der Außenorganisation,Coburg,38,0,50.255698,10.9550818
24,41904606,46359,Elektroniker für Energie- und Gebäudetechnik (m/w/d),Heiden,27,0,51.826563,6.9348091
25,36796798,24103,Systemkoordinator*in,Kiel,37,0,54.323924,10.1315442
26,39761199,6917,Laborant (w/m/d),Jessen,30,0,51.8346387,12.9829937
27,41249715,90403,"Ingenieur/in bzw. Bachelor (w/m/d) Architektur, Bauingenieurwesen (Hochbau)",Nürnberg,27,0,49.4550067,11.0795156
28,38255839,23558,Bauingenieur oder Architekt (m/w/d) im Bereich Sanierung,Lübeck,22,0,53.8567174,10.657845
29,36557800,65835,Strategischer Einkäufer / Projekteinkäufer für technisches Equipment & Dienstleistungen (m/w/d),Liederbach,32,0,50.1152835,8.4903658
30,38874372,17291,Projektleiter (m/w/d) Power-to-X,Dauerthal,39,0,53.3193989,13.8724781
31,40941300,81735,Kundenbetreuer (m/w/d),München,22,0,48.1091485,11.6463656
32,37319998,73230,Bautechniker (m/w/d) der Fachrichtung Hochbau,Kirchheim unter Teck,20,0,48.6425125,9.4594184
33,38836843,52531,Instandhaltungsplaner (w/m/d),Übach-Palenberg,22,0,50.9253588,6.1177073
34,36911378,54292,Elektroniker (m/w/d) Informationstechnik / Systemtechnik,Trier,25,0,49.7700344,6.6792434
35,42380989,65439,Objektleiter (m/w/d) Sicherheitsdienstleistungen für die Steuerung der kompletten Dienstleistungspalette,Flörsheim,26,0,50.0269987,8.4241522
36,39600152,78532,Kodierfachkraft (m/w/d) für unser Medizincontrolling,Tuttlingen,17,0,47.9709599,8.8117805
37,38824130,81673,Sozialpädagoge (m/w/d) Integrationsprojekt,München,24,0,48.1262953,11.6330728
38,40331063,36251,Manager IT (m/w/d),Bad Hersfeld,41,0,50.880385,9.7058593
39,42260591,71063,Ingenieur als Configuration Manager Luftfahrt (m/w/d),Sindelfingen,56,0,48.7131518,9.0000948
40,37973528,82166,Sachbearbeiter (m/w/d) in der Finanzbuchhaltung,Gräfelfing,41,0,48.1241099,11.4314056
41,39600074,41352,Tiefbauingenieur/-in oder Tiefbautechniker/-in (w/m/d),Korschenbroich,25,0,51.1956517,6.545060899999999
42,42028079,81925,Referent Nachhaltigkeit und Vorstandsangelegenheiten im Ressort Kapitalanlagen (m/w/d),München,50,0,48.1626868,11.6217484
43,37804837,68161,SAP PP Inhouse Consultant (m/w/d),Mannheim,22,0,49.4861656,8.470261599999999
44,42265520,86441,CNC Abkanter (m/w/d),Zusmarshausen,31,0,48.4018024,10.5910754
45,36325868,81377,Personalsachbearbeiter (m/w/d),München,52,0,48.1059924,11.4864487
46,39266630,31515,Elektroniker / Automatisierungstechniker (m/w/d),Wunstorf,26,0,52.42482529999999,9.407641
47,38448991,38239,Referent Konzernrechtsabteilung Schwerpunkt Compliance-Management (w/m/d),Salzgitter,21,0,52.1885109,10.4236635
48,41648040,80331,DevOps Engineer mit Schwerpunkten Development und Operations im Bereich SAP (w/m/d),München,39,0,48.1362105,11.572893
49,37118010,72762,"Heilerziehungspfleger/in, Gesundheits- und Krankenpfleger/in, Altenpfleger/in (m/w/d) oder vergleichbare Qualifikation",Reutlingen,25,0,48.47740109999999,9.1936152
50,38462321,28237,Junior - Technischer Arbeitsplaner (m/w/d),Bremen,28,0,53.1317586,8.7069552
51,40695626,70839,Steuerberater (gn),Gerlingen,17,0,48.7908056,9.0651574
52,41058234,77815,Vertriebsingenieur*in E-Mobilität (m/w/d),Bühl,29,0,48.6824642,8.1500317
53,34782717,71088,Specialist Antenna Technology (m/w/d),Holzgerlingen,2,0,48.6427688,9.0176454
54,42248274,45888,IT-Betreuer*in (w/m/d),Gelsenkirchen,51,0,51.51763219999999,7.1202394
55,38294300,10587,Bauteilverantwortliche:r - Entwicklungsingenieur:in - Steuergeräte-Hardware-Integration,Berlin,12,0,52.51708259999999,13.3236611
56,38913357,65185,Sachbearbeiter (m/w/d) IT-Projektcontrolling und Haushalt,Wiesbaden,50,0,50.0760976,8.240001699999999
57,37878449,24103,Projektleiter*in zum Bau von Mobilitätsstationen (d/m/w),Kiel,24,0,54.323924,10.1315442
58,40120183,95448,Ingenieur Maschinenbau - Offshore Netzbetrieb (m/w/d),Bayreuth,50,0,49.93635690000001,11.61009
59,40513757,79761,Medizinische Fachangestellte (m/w/d) für unseren Zentral-OP,Waldshut-Tiengen,15,0,47.6533265,8.2721269
60,40212383,73033,Vermessungstechniker (m/w/d),Göppingen,33,0,48.7098377,9.6531604
61,37878518,68161,Bilanzbuchhalter (m/w/d),Mannheim,36,0,49.4861656,8.470261599999999
62,38560897,63225,Technischer Redakteur (m/w/d),Langen,29,0,49.9886686,8.6628091
63,39812422,60596,Gesundheits- und Krankenpflegekraft / Altenpflegekraft - Therapiestation der Klinik für Nuklearmedizin,Frankfurt,16,0,50.0990675,8.6738622
64,39812185,50679,Arbeitsvorbereiter:in EMSR-Technik,Köln,24,0,50.934707,6.9759562
65,41658629,80686,Senior Java-Entwickler/Architekt - Q-Systeme (m/w/d),München,43,0,48.1288628,11.5089621
66,36873851,45133,Bauleiter (m/w/d) Elektrotechnik,Essen,26,0,51.4068406,6.9881259
67,39883504,60596,Medizinische Fachangestellte / Medizinischer Fachangestellter Gesundheits- und Krankenpflegekraft - Universitären Centrum für Tumorerkrankungen,Frankfurt,28,0,50.0990675,8.6738622
68,38073234,65428,"Projektingenieur (Fachrichtung Strahlenschutz, Messtechnik, o. ä.) im Bereich der nukleare Messtechnik (m/w/d)",Rüsselsheim,33,0,49.9901899,8.432798199999999
69,42846363,74189,Facharzt*ärztin für Psychiatrie und Psychotherapie oder Neurologie (w/m/d),Weinsberg,21,0,49.1582786,9.3014221
70,38724244,55131,Medizinische*r Fachangestellte*r (m/w/d),Mainz,18,0,49.9889241,8.2716688
71,39821345,60528,"Manager/in Konjunktur, Märkte und Statistik (w/m/d)",Frankfurt am Main,18,0,50.0734195,8.6361502
72,37878435,90478,DataCenter-Engineer (w/m/d),Nürnberg,51,0,49.4429032,11.1044714
73,39778426,60596,Verwaltungsangestellte / Verwaltungsangestellter mit dem Schwerpunkt Berufungsverfahren,Frankfurt,11,0,50.0990675,8.6738622
74,38940153,60486,Manager (m/w/d) Lieferkettensorgfaltspflichtgesetz (LkSG) und Nachhaltigkeit im Einkauf,Frankfurt,20,0,50.1130657,8.6252221
75,42548913,22305,Projektmanager mit datenanalytischem Fokus (m/w/d),Hamburg,36,0,53.58858379999999,10.0553745
76,36906658,76185,IT Consultant Retail Technologies (w/m/d),Karlsruhe,35,0,49.0072171,8.352578099999999
77,38105519,29614,Sachbearbeiter Category Management Elektro (m/w/d),Soltau,22,0,53.0057013,9.8309194
78,42663992,63263,Mitarbeiter im Bereich Elektrik/Elektronik (w/m/d),Neu-Isenburg,20,0,50.0521661,8.695244599999999
79,36131020,95448,Operations Engineer - Operational Readiness Phase (all genders),Bayreuth,27,0,49.93635690000001,11.61009
80,38560702,95448,Projekt Risikomanager Onshore (m/w/d),Bayreuth,22,0,49.93635690000001,11.61009
81,38450352,82024,Manager*in Innovation Hub (m/w/d),Taufkirchen,32,0,48.0389787,11.6265608
82,38006652,60486,Senior Vertriebsmanager (m/w/d) Fachvertrieb E-Mobilität,Frankfurt,23,0,50.1130657,8.6252221
83,38877728,72764,Sachbearbeiter (m/w/i) für die Steuerungsunterstützung im Sozialdezernat,Reutlingen,31,0,48.4933416,9.2147435
84,35735436,71034,R&D Engineer RF Engineer (m/f/d),Böblingen,43,0,48.6762593,8.9773145
85,40122233,71139,Ingenieur/Techniker Hochvoltsysteme Elektromobilität (m/w/d),Ehningen,26,0,48.6584785,8.9461595
86,40121961,33649,Entwicklungsingenieur (m/w/d) Innovation in der Baubranche,Bielefeld,31,0,51.97775499999999,8.4602772
87,36981384,73760,Ingenieur*in (m/w/d) - Versorgungstechnik Wärme und Energie,Ostfildern,29,0,48.7145823,9.2584908
88,38822214,80807,Kranmonteur:in / Kranelektriker:in (m/w/d),München,9,0,48.1865394,11.585399
89,36691618,68161,Leiter Rechnungswesen / Steuern  (m/w/d),Mannheim,22,0,49.4861656,8.470261599999999
90,43470260,53119,Elektronikerin / Elektroniker (w/m/d),Bonn,27,0,50.74391139999999,7.0627318
91,43663063,52134,Produktmanager GaN (w/m/d) in der Halbleiterindustrie,Herzogenrath,25,0,50.8840217,6.1086614
92,40332117,76185,Incident Response Manager (w/m/d),Karlsruhe,34,0,49.0072171,8.352578099999999
93,38824143,90587,Pflegefachkraft Wundexperte (w/m/d),Veitsbronn,22,0,49.511351,10.8893324
94,35844954,64293,Ergotherapeut/-in (m/w/d),Darmstadt,22,0,49.87763469999999,8.6285366
95,36310612,78713,Inbetriebnehmer / Mechatroniker / Elektroniker - elektrische Taktmontage (m/w/d),Schramberg-Waldmössingen,22,0,48.2341583,8.4374662
96,39163939,89160,Applikationsingenieur Lasertechnik (m/w/d),Dornstadt,26,0,48.4844561,9.8946464
97,38864809,55131,Projektleiter*in (m/w/d),Mainz,47,0,49.9889241,8.2716688
98,39037812,94469,Beamte:r / Angestellte:r (d/m/w) für das Referat Einkauf,Deggendorf,52,0,48.8456799,12.9779283
99,42449546,95445,Pflegefachkräfte (m/w/d) für die Aufnahmestation/Chest Pain Unit,Bayreuth,16,0,49.9517152,11.5608931
100,42370596,81829,Projektingenieur (m/w/d) Verkehrsanlagen mit dem Schwerpunkt Trassierung Eisenbahnverkehrsanlagen,München,17,0,48.1383204,11.6875629
101,39912322,94469,Fakultätsassistenz (d/m/w) an der Fakultät Angewandte Gesundheitswissenschaften,Deggendorf,32,0,48.8456799,12.9779283
102,39888588,50858,Verkäufer*in (m/w/d),Köln,26,0,50.9210017,6.854136
103,37243211,68161,Senior Accountant / Bilanzbuchhalter (m/w/d),Mannheim,18,0,49.4861656,8.470261599999999
104,35245713,95445,Pflegefachkraft (m/w/d) für die Klinik für Schädel-Hirn-Verletzte/Neurorehabilitation Phase B,Bayreuth,40,0,49.9517152,11.5608931
105,37906480,96450,Senior Data Scientist Claims (w/m/d),Coburg,20,0,50.255698,10.9550818
106,35913732,49477,Projektleiter Gebäudeautomation (m/w/d),Ibbenbüren,35,0,52.2750008,7.7099696
107,38614465,80336,Referent Energiepolitik und Regulierung (m/w/d),München,23,0,48.1340355,11.5571732
108,38072317,91074,Application and Integration Engineer for Electric Axle Drives (m/w/d),Herzogenaurach,28,0,49.5782416,10.8819032
109,35935631,80539,Anlagenbuchhalter*in,München,28,0,48.1447027,11.5821606
110,39452161,60528,Sachgebietsleiter:in (w/m/d) Einkauf,Frankfurt,14,0,50.0734195,8.6361502
111,38968573,25421,Projektleiter (m/w/d) Projektentwicklung Hochbau,Pinneberg,42,0,53.6466311,9.7859847
112,36238755,60329,IT Application Operator (m/w/d),Frankfurt,36,0,50.10600059999999,8.6677324
113,39229827,71154,Mechatroniker / Elektroniker Prüfmittelbau (m/w/d),Nufringen,31,0,48.6219403,8.8964043
114,38675938,63225,Application Manager (w/m/d),Langen,44,0,49.9886686,8.6628091
115,39972414,45888,Ingenieur*in (m/w/d) Landespflege Bau,Gelsenkirchen,28,0,51.51763219999999,7.1202394
116,41641938,70435,Spezialist (m/w/d) Infrastruktur Energiesystem,Stuttgart,22,0,48.831531,9.1585988
117,43091291,80939,Sachbearbeiter Materialmanagement (m/w/d),München,27,0,48.201196,11.6145677
118,38748403,82024,Senior Software Architekt*in (w/m/d),Taufkirchen,16,0,48.0389787,11.6265608
119,36697389,81377,Physiotherapeut (m/w/d),München,3,0,48.1059924,11.4864487
120,39307432,6242,Spezialist Trocknungs- und Kälteanlagen (w/m/d),Braunsbedra,12,0,51.279173,11.8881677
121,42379256,82024,"Meister*in/Techniker*in/Facharbeiter*in Automatisierungs-, MSR- oder Leittechnik für Biomasseanlage",Taufkirchen,17,0,48.0389787,11.6265608
122,40217069,81673,Sozialpädagoge (m/w/d) für easyContact Betreutes Wohnen für junge Erwachsene,München,24,0,48.1262953,11.6330728
123,40431007,81925,Sachbearbeiter (m/w/d) für betriebliche Altersversorgung,München,75,0,48.1626868,11.6217484
124,38735434,72622,Fachbereichsleiter (m/w/d) Deutsch - Integration / Junge vhs,Nürtingen,21,0,48.6134025,9.3213278
125,35745211,95445,Pflegefachkräfte (m/w/d) für die Aufnahmestation/Chest Pain Unit,Bayreuth,17,0,49.9517152,11.5608931
126,41329748,82319,HR Business Partner (w/m/d),Starnberg,24,0,48.0090878,11.3258686
127,41432268,91074,Spezialist Simulation elektrische Antriebssysteme (m/w/d),Herzogenaurach,35,0,49.5782416,10.8819032
128,38183098,1662,Referentin Projektentwicklung Wind (m/w/d),Meißen,35,0,51.1632952,13.475152
129,42413263,52428,Technischer Projektleiter F&E ‎(m/w/d)‎,Jülich,37,0,50.9418933,6.394430799999999
130,38748384,82024,Air Traffic Control Technische*r Projektleiter*in (w/m/d),Taufkirchen,29,0,48.0389787,11.6265608
131,38184346,52531,Linienverantwortlicher - Produktion (w/m/d),Übach-Palenberg,32,0,50.9253588,6.1177073
132,39037256,56322,Facharbeiter (m/w/d) Mechanische Fertigung,Spay/Rhein,19,0,50.2543658,7.6472777
133,40509096,65201,Senior Application- and Infrastructure Administrator / Linux (m/w/d),Wiesbaden,23,0,50.049155,8.1878001
134,37415272,58300,Hardwareentwickler / Ingenieur für elektronische Temperaturregler (m/w/d),Wetter (Ruhr),28,0,51.3785418,7.3632022
135,41262238,24937,Sozialpädagoge/Sozialpädagogin (m/w/d) oder Sozialarbeiter/in (m/w/d) mit staatlicher Anerkennung (Diplom/Bachelor),Flensburg,27,0,54.7849139,9.430704
136,42449966,95445,Oberarzt (m/w/d) für die Notaufnahme,Bayreuth,33,0,49.9517152,11.5608931
137,39156215,60549,Engagement Manager Captive (m/w/d) in Teilzeit möglich,Frankfurt,30,0,50.041381,8.5800547
138,37780048,74254,Erzieher/-innen und Pädagogische Fachkräfte (m/w/d),Offenau,27,0,49.2439527,9.1637074
139,40513498,55131,Physiotherapeut*in (m/w/d),Mainz,18,0,49.9889241,8.2716688
140,43116487,70376,Assistenzarzt (m/w/d) für die Allgemein- und Viszeralchirurgie,Stuttgart,20,0,48.82035339999999,9.2031939
141,41323682,42857,Process Developer (m/w/d) Schwerpunkt Materialmanagement,Remscheid,20,0,51.16776050000001,7.1621551
142,39568953,80686,Solution Architect (m/w/d),München,37,0,48.1288628,11.5089621
143,37359369,48499,Elektriker / Elektroniker (m/w/d) Schaltschrankbau,Salzbergen,18,0,52.3147686,7.338750399999999
144,41070990,80538,Spezialist (m/w/d) Startup-Cooperation,München,37,0,48.1445812,11.5895274
145,41058231,91074,Experte Projekteinkauf elektrische Achssysteme (m/w/d),Herzogenaurach,10,0,49.5782416,10.8819032
146,36197976,95448,Referent für Netzwirtschaft im Bereich Customers & Markets (m/w/d),Bayreuth,35,0,49.93635690000001,11.61009
147,40985791,80992,Projektleitung Umsetzung Brandschutz (m/w/d),München,24,0,48.1757295,11.5182935
148,38559500,82024,Koordinator*in Risk & Improvement (w/m/d),Taufkirchen,28,0,48.0389787,11.6265608
149,38695030,80807,Ingenieur*in (d/m/w) Versorgungs- und Gebäudetechnik,München,16,0,48.1865394,11.585399
150,43330557,78464,Mitarbeiter in der Dokumentation der IT-Infrastruktur der Universität (w/m/d),Konstanz,41,0,47.6755009,9.1980125
151,42386934,95445,Leitung (m/w/d) Applikationsmanagement,Bayreuth,0,0,49.9517152,11.5608931
152,38675925,63225,IT Specialist (w/m/d) Clientmanagement,Langen,39,0,49.9886686,8.6628091
153,35820219,82024,Systemingenieur*in Airborne SIGINT (w/m/d),Taufkirchen,23,0,48.0389787,11.6265608
154,38668996,30163,Projektmanager - Marktplätze (m/w/d),Hannover,15,0,52.3996378,9.7493829
155,36730323,80807,Projektmanager Digitale Produkte (m/w/d),München,29,0,48.1865394,11.585399
156,38987741,66121,Groupwide Service Manager (m/w/d),Saarbrücken,15,0,49.2296839,7.0409029
157,38953040,22844,Leiter (m/w/d) Capacity Planning,Norderstedt,21,0,53.7263514,10.0117748
158,39991206,10117,Experte (w/m/d) kollektives Arbeitsrecht,Berlin,29,0,52.5155098,13.3847539
159,43439562,81373,Fachkraft Metalltechnik / Industriemechaniker (m/w/d) als Monteur in der Fertigung,München,23,0,48.1214727,11.5322563
160,36733697,72072,Sachgebietsleitung für die Straßenverkehrsbehörde (m/w/d),Tübingen,32,0,48.4936788,9.052606
161,40891580,91074,Einkäufer Geschäftsbereich Ventiltriebsysteme (m/w/d),Herzogenaurach,25,0,49.5782416,10.8819032
162,37117894,54329,Solution Sales Manager (m/f/d) - Mining and Quarry for Volvo Autonomous Solutions,Konz,32,0,49.6756602,6.6254122
163,40404778,56073,Trainee (m/w/d) für das Strategische Management (Controlling/Treasury) der Debeka Bausparkasse AG,Koblenz,18,0,50.3481531,7.5616813
164,37804826,56751,Elektrokonstrukteur (m/w/d),Polch,16,0,50.3002082,7.2980427
165,38247849,88239,Ingenieure / Techniker als technische Redakteure Ersatzteillogistik (m/w/d),Wangen,26,0,47.6894006,9.8206437
166,37314758,91074,Cost Value Engineer E-Mobility - Schwerpunkt Elektronik (m/w/d),Herzogenaurach,12,0,49.5782416,10.8819032
167,39759214,80809,Commodity Manager (Machining) / Project buyer (m/f/d),München,26,0,48.1800923,11.5497532
168,39419827,70190,Redaktionsassistent / Redaktionsassistentin (w/m/d) im Studio Tübingen,Stuttgart,86,0,48.78939769999999,9.1962771
169,36778143,30175,Business Owner Customer- Product Line Parking (m/f/diverse) - Executive,Hannover,28,0,52.3769996,9.7630649
170,38144689,99099,IT Notfallmanager (m/w/d) IT Service Continuity Management,Erfurt,38,0,50.9629108,11.0744063
171,40255207,81373,Elektriker / Elektroniker (m/w/d),München,24,0,48.1214727,11.5322563
172,40248057,74177,Category Management Lead (f/m/x) Indirect Sourcing,Bad Friedrichshall,23,0,49.237102,9.2101487
173,38561249,73660,Leitung des Haupt- und Ordnungsamts (m/w/d),Urbach,35,0,48.8201039,9.5775729
174,39504571,50679,Monteur:in Verkehrssicherung (m/w/d),Köln,28,0,50.934707,6.9759562
175,38836209,51588,Teamleitung Pflege neurologische Frührehabilitation (m/w/d),Nümbrecht,19,0,50.905378,7.530899
176,39585985,39288,Dipl.-Psychologe / Master Psychologie (m/w/d),Burg,25,0,52.2978506,11.8716379
177,40513472,55131,Medizinische*r Fachangestellte*r (m/w/d),Mainz,17,0,49.9889241,8.2716688
178,37371626,33098,POLIER SCHLÜSSELFERTIGBAU (m/w/d),Paderborn,12,0,51.7113515,8.754257599999999
179,41078413,60596,Study Nurse / Studienassistenz - Klinik für Strahlentherapie,Frankfurt,27,0,50.0990675,8.6738622
180,38730892,80807,Elektroniker:in für Energie- und Gebäudetechnik (m/w/d),München,13,0,48.1865394,11.585399
181,40215478,50679,Facharbeiter:in Leitungsbau (m/w/d),Köln,21,0,50.934707,6.9759562
182,37877667,78658,Elektroplaner (m/w/d) EPLAN,Zimmern,15,0,48.1674346,8.590668299999999
183,41927868,59439,Procurement Excellence Manager (m/w/d),Holzwickede,28,0,51.48774239999999,7.635929799999999
184,39568913,88662,Technischer Hausverwalter/ Technischer Objektbetreuer (m/w/d),Überlingen,31,0,47.7654618,9.1450009
185,40726933,86899,Group Controller (m/w/d),Landsberg,13,0,48.02530300000001,10.8506608
186,40893542,73728,Personalreferent:in für die Abteilung Personalmanagement,Esslingen am Neckar,48,0,48.7384056,9.3081095
187,36458963,85057,Betriebsingenieur Anlagen- und Automatisierungstechnik (m/w/d),Ingolstadt,35,0,48.7750985,11.4097351
188,43660651,80335,Heilerziehungspfleger / Ergotherapeut (m/w/d),München,28,0,48.1443383,11.5548236
189,42450761,95445,Systembetreuer (m/w/d) Zeitwirtschaft,Bayreuth,36,0,49.9517152,11.5608931
190,35656336,82319,Gesundheits- und Krankenpfleger (m/w/d) für unsere kardiologische 36-Betten-Station (davon 6 IMC Betten),Starnberg,29,0,48.0090878,11.3258686
191,36736828,60329,"Teamleiter ""Innovation und Digitalisierung"" (m/w/d)",Frankfurt/Main,27,0,50.10600059999999,8.6677324
192,41069081,60596,Laborassistenz / Medizinisch-technische Assistenz (MTA / BTA) - Krankenhaushygiene,Frankfurt,76,0,50.0990675,8.6738622
193,39158536,21035,Personalsachbearbeiter (m/w/d) mit Schwerpunkt Entgeltabrechnung,Hamburg,33,0,53.4873133,10.153583
194,40986084,74172,Systems Management Specialist (w/m/d),Neckarsulm,35,0,49.1942456,9.2351573
195,43548073,60486,Maßnahmenleiter (w/m/d) Planung und Bau Wärmenetz,Frankfurt,47,0,50.1130657,8.6252221
196,43088184,79115,Systemingenieur (m/w/d) für Safety- und Zuverlässigkeitsprozesse,Freiburg,18,0,47.99036390000001,7.820171299999998
197,36006005,94032,Projektassistenz am Lehrstuhl für Informatik mit Schwerpunkt Rechnernetze und Rechnerkommunikation (m/w/d),Passau,24,0,48.5718453,13.4607296
198,36553883,97877,Produktmanager (m/w/d) - Schwerpunkt Software,Wertheim,28,0,49.7338642,9.4743245
199,40432574,33100,Kompakt,Paderborn,0,0,51.7212792,8.834156199999999
200,40931792,76131,Teamleiter Softwareentwicklung / Java (m/w/d),Karlsruhe,43,0,49.0116951,8.4303821
201,36702107,83313,Personalreferent (m/w/d) mit Schwerpunkt Controlling,Siegsdorf,16,0,47.8073797,12.6648284
202,40448377,60486,Domain Architect Kundendaten (w/m/d),Frankfurt am Main,31,0,50.1130657,8.6252221
203,36906827,60325,Trainee Finance Consulting (m/w/d) vom Bachelor zum Master mit unserem praxisorientierten Traineeprogramm,Frankfurt,24,0,50.1157078,8.6591469
204,35938805,24103,Chemielaborantin / Chemielaborant bzw. Chemisch-technische Assistentin / Chemisch-technischer Assistent (w/m/d),Kiel,77,0,54.323924,10.1315442
205,39381346,97318,Lead Expert Functional Safety (m/w/d),Kitzingen,32,0,49.7451277,10.1875151
206,41440754,65189,"Betriebs- oder Energiewirtschaftler (m/w/d) für Absatzstrategie und Qualitätsmanagement im Bereich Strom, Erdgas und Wärme",Wiesbaden,36,0,50.0726721,8.2570237
207,42658373,85774,(Junior) Steuerreferent Umsatzsteuer (m/w/d),Unterföhring,27,0,48.1918216,11.6569449
208,38251498,52525,Experte Operational Excellence (w/m/d),Waldfeucht,31,0,51.04119379999999,6.104102
209,39781325,50679,Techn. Trainee (m/w/d) in der EMSR-Technik,Köln,31,0,50.934707,6.9759562
210,39391067,93053,IT-Applikationsspezialist (m/w/d),Regensburg,31,0,48.9882219,12.1020638
211,40147203,50679,Tiefbaufacharbeiter:in (m/w/d),Köln,17,0,50.934707,6.9759562
212,35844797,64293,Pflegekräfte (m/w/d),Darmstadt,43,0,49.87763469999999,8.6285366
213,37574796,42281,Fernwärmemonteur*in,Wuppertal,26,0,51.2866862,7.188234700000001
214,43331522,45879,Meister / Techniker / Polier (m/w/d) Planung / Arbeitsvorbereitung Netzprojekte Strom,Gelsenkirchen,42,0,51.5084358,7.097707
215,39229817,40589,Systembibliothekar (d/m/w),Düsseldorf,27,0,51.1640762,6.821441999999999
216,41966991,77781,Einkäufer (m/w/d),Biberach,25,0,48.3390059,8.031707299999999
217,38073598,12529,Spezialist (m/w/d) CAD-Gebäudedaten,Schönefeld,34,0,52.3690709,13.5016479
218,37208058,48155,Stellvertretende Studioleitung / Filialleitung (m/w/d),Münster,47,0,51.94751609999999,7.6603488
219,35920932,80992,Spezialist*in (m/w/d) Wärme- und Kälteisoliertechnik sowie Brandschutz,München,23,0,48.1757295,11.5182935
220,37129797,71093,Mitarbeiter (m/w/d)  Kundenservice Innendienst,Weil im Schönbuch,27,0,48.613717,9.0657204
221,38506057,21509,Accounting Project & Process Manager* (m/w/d),Glinde,28,0,53.5447292,10.2167335
222,35771399,74321,Hardwarekonstrukteur (m/w/d),Bietigheim-Bissingen,23,0,48.95356820000001,9.1241772
223,38941021,64293,Teamleiterin (m/w/d)  - General Ledger,Darmstadt,37,0,49.87763469999999,8.6285366
224,39156605,70736,Mitarbeiter (w/m/d) im Postmanagement,Fellbach,27,0,48.8405086,9.2677632
225,42389897,86156,Pflegefachmann / Gesundheits- und Krankenpfleger (m/w/d) - ohne Wochenend- & Feiertagsdienste,Augsburg,26,0,48.3920947,10.8553557
226,37371329,33098,Technischer Produktentwickler (m/w/d),Paderborn,25,0,51.7113515,8.754257599999999
227,41092374,55131,Pflegefachkraft (m/w/d),Mainz,20,0,49.9889241,8.2716688
228,37117746,25337,"Teamleitung untere Bauaufsicht (Beamter, Architekt, Bauingenieur, Stadtplaner o.Ä.) (m/w/d)",Elmshorn,48,0,53.75073020000001,9.7178209
229,42113765,14482,Informationsmanager (w/m/d),Potsdam,33,0,52.3875629,13.1028717
230,40976467,85435,Leiter (m/w/d) Immobilienkunden,Erding,21,0,48.31025289999999,11.925775
231,39853665,81673,Sozialpädagoge (m/w/d) für Schulsozialarbeit und Prävention in München (ID: 1221),München,18,0,48.1262953,11.6330728
232,37691610,64293,Teamassistenz / Stellvertretende Leitung Backoffice (m/w/d),Darmstadt,63,0,49.87763469999999,8.6285366
233,39617649,86156,Technischen Informatiker (m/w/d),Augsburg,33,0,48.3920947,10.8553557
234,38466986,22117,Projektbearbeiter*in Schalungstechnik,Hamburg,28,0,53.5486838,10.1387851
235,35154990,65835,Referent Back Office Sales / B2B Auftragswesen (w/m/d),Liederbach,48,0,50.1152835,8.4903658
236,36327751,5080,IT Business Partner (m/w/d),Laufenburg,18,0,,
237,42389160,71642,Senior Konstrukteur Elektronik (m/w/d),Ludwigsburg,21,0,48.9073224,9.2575008
238,40507185,80686,Technischer Sachbearbeiter als Stützpunktbeauftragter (m|w|d),München,15,0,48.1288628,11.5089621
239,39679560,65195,Sachbearbeiter (m/w/d) Lohnabrechnung,Wiesbaden,34,0,50.1053491,8.1976788
240,40147254,50679,Asphaltbauer:in (m/w/d),Köln,18,0,50.934707,6.9759562
241,37691456,94036,Store Manager / Teamleiter (m/w/d),Passau,21,0,48.5790873,13.3832805
242,40906831,22335,Technischer Assistent (m/w/d) Qualitätskontrolle (Rohstofftestung),Hamburg,19,0,53.6283203,10.0058214
243,38671575,40225,Ingenieur - Versorgungstechnik / HKLS (m/w/d),Düsseldorf,19,0,51.19743750000001,6.7898817
244,38502903,70173,Kraftfahrer*in für Spezialfahrzeuge und Kanalreiniger*in / -inspekteur*in (m/w/d),Stuttgart,58,0,48.78270269999999,9.1828631
245,36491296,55131,Praxisanleiter*in (m/w/d),Mainz,16,0,49.9889241,8.2716688
246,38743302,59439,Spezialist (m/w/d) im Travel Management,Holzwickede,31,0,51.48774239999999,7.635929799999999
247,36443757,96450,Teamlead Data Science (w/m/d),Coburg,42,0,50.255698,10.9550818
248,41483370,35781,Softwareentwickler Frontend für IoT - Systeme (m/w/d),Weilburg,33,0,50.4797358,8.2615942
249,40602135,58135,Mitarbeiter (m/w/d) Managementsysteme / Behördenmanagement,Hagen,20,0,51.3376396,7.426324600000001
250,38087964,70173,Amtsleitersekretär*in (m/w/d),Stuttgart,49,0,48.78270269999999,9.1828631
251,42571006,60549,Store Manager (m/w/d),Frankfurt am Main,49,0,50.041381,8.5800547
252,38820158,81739,Trainee (m/w/d) Controlling - Business Intelligence,München,61,0,48.0900706,11.6674998
253,42476498,93047,Kinderpfleger/-innen (m/w/d) Tagesbetreuung Nord,Regensburg,28,0,49.01686420000001,12.0974081
254,42115567,78464,Pflegekräfte (m/w/d) mit und ohne Ausbildung,Konstanz,57,0,47.6755009,9.1980125
255,39663617,68161,Sachbearbeiter Compliance (m/w/d),Mannheim,22,0,49.4861656,8.470261599999999
256,40939582,45128,Elektroniker/in für Betriebstechnik (m/w/d),Essen,23,0,51.4452228,7.0078317
257,41332621,80333,Bachelor/Techniker im Bereich Energieverfahrenstechnik (m/w/d),München,37,0,48.1440989,11.5695525
258,41858750,54470,Pädagogische Fachkräfte (m/w/d),Bernkastel-Kues,29,0,49.9168321,7.0645656
259,35925089,52068,Vertriebsmitarbeiter Innendienst (m/w/d) (Inside Sales Representative),Aachen,23,0,50.7794144,6.1339006
260,43116612,70376,Mitarbeiter (m/w/d) in der Mind-Body-Medizin / Ordnungstherapie (80 - 100 %),Stuttgart,57,0,48.82035339999999,9.2031939
261,40431696,81379,Pflegefachkraft als Dauernachtwache (m/w/d),München,31,0,48.0966922,11.5286651
262,41927775,59439,Senior Projektleiter (w/m/d) im Corporate Real Estate Management,Holzwickede,32,0,51.48774239999999,7.635929799999999
263,37775259,10789,Senior Fonds Manager (m/f/d),Berlin,21,0,52.50118029999999,13.3380778
264,38865254,70176,Alltagsbegleitung (m/w/d),Stuttgart,31,0,48.7767989,9.1616733
265,43124812,51147,Projektleiter (m/w/d) Tiefbau (insbes. Entwässerung),Köln,25,0,50.8681948,7.123898499999999
266,40122250,50679,Bohlenbediener:in Asphaltkolonne (m/w/d),Köln,13,0,50.934707,6.9759562
267,36369208,71364,Gesundheits- und Krankenpfleger (m/w/d) - für unsere orthopädisch/ unfallchirurgische Station,Winnenden,11,0,48.8697946,9.4066135
268,37127387,91074,Projekteinkäufer*in (m/w/d) E-Mobility - Electronics,Herzogenaurach,21,0,49.5782416,10.8819032
269,42474438,53119,Sachverständige / Sachverständiger oder Gutachterin / Gutachter (w/m/d) Immobilienbewertung,Bonn,33,0,50.74391139999999,7.0627318
270,39691471,84489,IT-Software Engineer Produktionslogistik / Automation (w/m/d),Burghausen,40,0,48.1671386,12.821733
271,39388798,80807,Planungskoordinator (m/w/d) pde Integrale Planung,München,18,0,48.1865394,11.585399
272,38341128,76344,"Technische Mitarbeiterin / Technischer Mitarbeiter (w/m/d) Informatik, Physik oder Ingenieurwissenschaften (Bachelor/Diplom (FH))",Eggenstein-Leopoldshafen,58,0,49.0922651,8.3714557
273,41442787,45359,Developer International Customs  (m/w/d),Essen,37,0,51.465929,6.9259698
274,37699093,70771,Baukauffrau:mann (m/w/d) im Verkehrswegebau,Leinfelden-Echterdingen,35,0,48.6885983,9.1410265
275,43383704,30167,Sachbearbeiter/in (m/w/d) für das Campusmanagementsystem SAP-SLCM,Hannover,38,0,52.3863062,9.7156831
276,35606567,15366,Ingenieur als Dezernatsleitung (m/w/d) Bau West,Hoppegarten,23,0,52.502411,13.6612383
277,37704205,30659,Elektroniker (m/w/d),Hannover,17,0,52.4181462,9.8176312
278,42836567,70176,Alltagsbegleiter (m/w/d),Stuttgart,43,0,48.7767989,9.1616733
279,42211091,86156,"Gesundheits- und Krankenpfleger, Altenpfleger oder Pflegefachmänner/-frauen (m/w/d) Psychiatrie",Augsburg,19,0,48.3920947,10.8553557
280,39972966,60549,Linux Administrator (m/w/d),Frankfurt,23,0,50.041381,8.5800547
281,37575491,85057,Baubeauftragter (m/w/d) für die Stromversorgung,Ingolstadt,35,0,48.7750985,11.4097351
282,38843598,71364,Sozialpädagoge*in oder Erzieher*in (m/w/d)  für die Inobhutnahme,Winnenden,46,0,48.8697946,9.4066135
283,41898810,14979,"Betriebstechniker*in (w/m/d) Mess-, Steuer- und Regelungstechnik (MSR)",Großbeeren,28,0,52.3687324,13.3165257
284,36387244,68161,Rechtsanwaltsfachangestellter für den Bereich Zwangsvollstreckung  (m/w/d),Mannheim,37,0,49.4861656,8.470261599999999
285,40172332,6188,Senior Entwicklungsingenieur (m/w/d) Elektrotechnik,Landsberg,15,0,51.5324258,12.1155511
286,40627238,91054,Informationselektroniker (m/w/d) für den Bereich Telekommunikationsanlagen,Erlangen,16,0,49.6024057,11.0069277
287,36909779,8037,Elektroplaner / Elektrokonstrukteur (m/w/d) im Bereich Renewable Gas,Zurich,23,0,,
288,42548404,81925,Mathematiker (m/w/d),München,23,0,48.1626868,11.6217484
289,39456710,70435,Entwicklungsingenieur (m/w/d) Pulswechselrichter,Stuttgart,29,0,48.831531,9.1585988
290,37325297,59557,Industriemechaniker (m/w/d),Lippstadt,18,0,51.6560952,8.3485737
291,41089771,52531,Elektroniker - Bereich Instandhaltung (w/m/d),Übach-Palenberg,20,0,50.9253588,6.1177073
292,38964781,64372,Junior Marktplatz Manager (m/w/d) Onboarding,Ober-Ramstadt,26,0,49.8221211,8.749378499999999
293,38742603,87484,Mechaniker für die Endmontage (w/m/d),Nesselwang,11,0,47.6238599,10.4995094
294,38001637,80797,Facharzt für Psychiatrie und Psychotherapie (m/w/d) - Praxis Am Kurpark,München,11,0,48.1629382,11.5575332
295,40975075,33154,Technischer Vertriebsmitarbeiter (m/w/d)  für das digitale Produktdatenmanagement,Salzkotten/Oberntudorf,26,0,51.6752444,8.5968392
296,37749865,86633,Specialist Data Management PIM/MAM (m/w/d) Kennziffer 23/18 | Vollzeit | Elternzeitvertretung,Neuburg,35,0,48.7292593,11.1924711
297,36684579,90443,Oberarzt (m/w/d) Gefässchirurgie,Nürnberg,0,0,49.4393743,11.0682334
298,37558437,37574,Project Manager / Data Architect - Digital Farming Service (m/w/d),Einbeck,24,0,51.8400755,9.8768862
299,37237669,60486,Senior Projektleiter (m/w/d) Bautechnik,Frankfurt,21,0,50.1130657,8.6252221
300,41756575,70567,Monteur Elektro WFM (w/m/d),Stuttgart,25,0,48.7226206,9.1584836
301,39685967,35606,Konstrukteur (m/w/d),Solms,24,0,50.5519629,8.4165038
302,38001694,80797,Facharzt für Allgemeinmedizin / Innere Medizin (m/w/d) - Praxis Menaristraße,München,11,0,48.1629382,11.5575332
303,35964001,30659,Junior Innovations- und Produktmanager (w/m/d),Hannover,24,0,52.4181462,9.8176312
304,38821823,56130,Softwareentwickler / Softwarearchitekt User Interface (m/w/d) Medizinische Systeme,Bad Ems,33,0,50.3505119,7.7227544
305,39852985,60528,Betriebsangestellte:r (w/m/d) Dezentraler Arbeitsschutz,Frankfurt,28,0,50.0734195,8.6361502
306,37326267,56242,Leiter (m/w/div.) Hochregallager Bereich Spritzguss,Selters,20,0,50.53048260000001,7.7528226
307,37970440,95445,IT-Architekt MVZ (m/w/d) ,Bayreuth,22,0,49.9517152,11.5608931
308,43127223,10589,Leiterin Betrieb Dezentrale Anlagen (m/w/d),Berlin,26,0,52.5298769,13.3067427
309,38137045,49828,Vertriebsinnendienstmitarbeiter (m/w/d),Neuenhaus,30,0,52.5570076,7.0551536
310,39857677,72555,SAP Senior Inhouse Consultant (m/w/d) international,Metzingen,31,0,48.5347328,9.295337
311,42829673,59494,Projektmanager Server-Networking (m/w/d),Soest,24,0,51.56273119999999,8.0937324
312,42472624,60486,Inbetriebsetzer (m/w/d) für Leit- und Fernwirktechnik,Frankfurt,17,0,50.1130657,8.6252221
313,40376505,91074,Specialist Processes & Infrastructure mit Schwerpunkt Data Management (m/w/d),Herzogenaurach,41,0,49.5782416,10.8819032
314,37323038,97318,Mitarbeiter Bandbetreuung/Serviceteam im Hause des Kunden Mercedes-Benz (m/w/d),Kitzingen,24,0,49.7451277,10.1875151
315,37511855,91074,Lead Engineer Leistungselektronik (m/w/d),Herzogenaurach,27,0,49.5782416,10.8819032
316,38940337,68199,Sachbearbeiter Rechnungsprüfung (m/w/d),Mannheim,26,0,49.45640059999999,8.4870173
317,42570111,45143,"Mitarbeiter Betriebs- und Gebäudetechnik - Elektriker, Mechatroniker (m/w/d)",Essen,21,0,51.46279209999999,6.9787572
318,38091236,68161,Personalsachbearbeiter (m/w/d),Mannheim,23,0,49.4861656,8.470261599999999
319,43500881,76137,Spezialist Vertriebssteuerung / Vertriebsmanagement (m/w/d),Karlsruhe,19,0,48.99995329999999,8.4173066
320,37116340,45699,Erzieher*in als pädagogische Fachkraft (m/w/d),Herten,49,0,51.58688,7.1548905
321,38465195,68161,Teamleitung Finanzbuchhaltung (m/w/d),Mannheim,12,0,49.4861656,8.470261599999999
322,39814675,70376,Medizinische Fachangestellte (m/w/d) für die Endoskopie am Empfang,Stuttgart,26,0,48.82035339999999,9.2031939
323,36796877,50933,Senior Manager:in indirekter Einkauf,Köln,12,0,50.94010859999999,6.8851368
324,35967803,80686,Netzwerkmanager Regulierungsdienstleister (m|w|d),München,20,0,48.1288628,11.5089621
325,37787323,68161,Team Lead Quality Assurance - GMP (m/w/d),Mannheim,22,0,49.4861656,8.470261599999999
326,37257084,82319,Medizinische Kodierfachkraft (m/w/d) im Medizincontrolling Fachbereich Innere Medizin,Starnberg,1,0,48.0090878,11.3258686
327,38632543,91074,Special Machinery Contract Manager*in (m/w/d),Herzogenaurach,7,0,49.5782416,10.8819032
328,40893335,40549,Sales Agent (m/w/d),Düsseldorf,19,0,51.233068,6.719087399999999
329,41972250,65201,(Senior) Software Engineer Fullstack (m/w/d),Wiesbaden,27,0,50.049155,8.1878001
330,36609444,68161,Pflegedienstleitung in der Seniorenwohnanlage (m/w/d),Mannheim,27,0,49.4861656,8.470261599999999
331,39663740,68161,Bauingenieur Verkehrsanlagen (m/w/d),Mannheim,28,0,49.4861656,8.470261599999999
332,37022441,76227,HR Specialist (m/w/d),Karlsruhe,33,0,48.9881413,8.4743368
333,36706035,68161,Vermögensberater Genossenschaftsbank (m/w/d),Mannheim,21,0,49.4861656,8.470261599999999
334,38709935,63801,Shift Leader (m/w/d),Kleinostheim,24,0,50.019441,9.0701577
335,41331470,70176,Pflegehelfer (m/w/d) stationär,Stuttgart,15,0,48.7767989,9.1616733
336,40355292,76185,IT Consultant Stammdaten / Master Data (w/m/d),Karlsruhe,39,0,49.0072171,8.352578099999999
337,38824092,24103,Co-Leitung im Projekt Holtenau-Ost im Dezernat des Oberbürgermeisters (m/w/d),Kiel,18,0,54.323924,10.1315442
338,41431319,80807,Digital Verification Engineer (d/m/f),München,18,0,48.1865394,11.585399
339,38561207,68161,Plant Controller (m/w/d),Mannheim,24,0,49.4861656,8.470261599999999
340,41756629,80331,Business Analyst*in Anforderungsmanagement E-Akte / Digitalisierung (w/m/d),München,57,0,48.1362105,11.572893
341,35607283,79539,Assistenzarzt für diagnostische Radiologie (w/m/d),Lörrach,27,0,47.6215172,7.662926499999999
342,39964318,80333,Kalkulator*in (m/w/d),München,21,0,48.1440989,11.5695525
343,43498198,71364,Supply Planner (m/w/d) Milwaukee®- Produkte,Winnenden,16,0,48.8697946,9.4066135
344,37711668,63939,IT- Systemadministrator (m/w/d),Wörth,25,0,49.7955315,9.1547643
345,40331301,8233,Projekt- und Kalkulationsingenieur (m/w/d),Treuen,21,0,50.5371205,12.313432
346,43327432,92711,Elektroniker (m/w/d) im Bereich Schaltschrankbau,Parkstein,24,0,49.7286456,12.0681576
347,42562849,82024,Systemingenieur*in für Electronic Warfare (w/m/d),Taufkirchen,65,0,48.0389787,11.6265608
348,38735543,87600,Power Electronics Engineer (m/w/d),Kaufbeuren,16,0,47.876303,10.6260634
349,38895139,55131,Praxisanleiter*in (m/w/d) für den fachpraktischen Unterricht im OP,Mainz,19,0,49.9889241,8.2716688
350,40404829,65203,Technischer Einkäufer (m/w/d),Wiesbaden,29,0,50.0408985,8.231266699999999
351,37787099,13158,Bereichsleiter (m/w/d) Anlagenbau | Elektrotechnik,Berlin,32,0,52.5917165,13.3835886
352,36159721,51105,Applikations- und Prozessingenieur (m/w/d) Filterpressen,Köln,22,0,50.9228362,6.9993352
353,38614303,75179,(Junior) Prozessingenieur (m/w/d) Laser,Pforzheim,30,0,48.903762,8.6528701
354,37515291,38112,Referent* Director Group Controlling & Accounting (m/w/d),Braunschweig,24,0,52.3073694,10.4762485
355,40603518,90491,Tourismuskaufmann (w/m/d) im Reisebüro Nürnberg,Nürnberg,26,0,49.4681055,11.116973
356,38097547,59439,Strategische Assistenz (w/m/d) Global Group PR & Communications,Holzwickede,45,0,51.48774239999999,7.635929799999999
357,36958639,55411,Servicetechniker (m|w|d),Bingen,18,0,49.9437022,7.922532899999999
358,36208672,10117,Nachrichtentechniker / Informationstechniker (w/m/d) für System- und Netzwerktechnik,Berlin,33,0,52.5155098,13.3847539
359,42780883,85049,Friedhofsschaffner/-in (m/w/d),Ingolstadt,63,0,48.7557151,11.3364793
360,40590902,40227,Staatlich geprüfte*r Techniker*in der Fachrichtung Bautechnik,Düsseldorf,34,0,51.2153849,6.7975715
361,39289040,76532,Bauleiter (m/w/d) für den Bereich Rohbau,Baden-Baden,19,0,48.7995549,8.209163
362,36396683,44319,Techniker als Einsatzleiter / Servicekoordinator Industrieofenbau (m/w/d),Dortmund,24,0,51.53752679999999,7.602083399999999
363,39039545,10829,Kfz-Elektriker / Kfz-Mechatroniker (m/w/d),Berlin,21,0,52.4803778,13.3597304
364,41490126,97688,Finanzbuchhaltung (m/w/d),Bad Kissingen,20,0,50.21243639999999,10.0588367
365,42917605,72622,HR Payroll Specialist (m/w/d),Nürtingen,28,0,48.6134025,9.3213278
366,37167724,86156,Pflegefachmann/Pflegefachfrau (m/w/d) zur Erstanstellung nach Ausbildungsabschluss,Augsburg,14,0,48.3920947,10.8553557
367,37326274,56242,Industriemechaniker/ Servicetechniker (m/w/d) Fachrichtung Maschinen- und Anlagenbau,Selters,16,0,50.53048260000001,7.7528226
368,43524967,72762,Business-Analyst und Software Entwickler (m/w/d),Reutlingen,35,0,48.47740109999999,9.1936152
369,37713497,28195,Referent für Finanz- und Wirtschaftspolitik (m/w/d),Bremen,21,0,53.0838997,8.8044917
370,36309133,70567,Bauleiter:in im Roh- und Schlüsselfertigbau in Wuppertal und Umgebung (m/w/d),Stuttgart,26,0,48.7226206,9.1584836
371,38864816,55131,Medizinisch-Technische*r Laborassistent*in (m/w/d),Mainz,33,0,49.9889241,8.2716688
372,39771384,81673,Sozialpädagoge (m/w/d) für Jugendsozialarbeit (ID: 1150),München,25,0,48.1262953,11.6330728
373,39912323,94469,"Professur ""Wasserstoff: Elektrolyse / Brennstoffzellentechnik""",Deggendorf,41,0,48.8456799,12.9779283
374,41648622,96047,Senior Controller (m/w/d),Bamberg,26,0,49.8918432,10.8926107
375,41528467,85049,Leitung (m/w/d) des Rechtsamtes,Ingolstadt,51,0,48.7557151,11.3364793
376,38297767,70435,Spezialist (m/w/d) Corporate Finance & Treasury (Treasury Accounting),Stuttgart,29,0,48.831531,9.1585988
377,40690340,91074,Senior Engineer Electric/Electronic E-Mobility (m/w/d),Herzogenaurach,12,0,49.5782416,10.8819032
378,38168423,73430,Berater Generationenmanagement / Testamentsvollstreckung (m/w/d),Aalen,33,0,48.84786339999999,10.0821944
379,36870139,74321,SPS Inbetriebnehmer Klebesysteme (m/w/d),Bietigheim-Bissingen,24,0,48.95356820000001,9.1241772
380,40513522,55131,Assistenz der Stationsleitung (m/w/d),Mainz,36,0,49.9889241,8.2716688
381,38919627,69168,Pflegefachkraft / Gesundheits- und Krankenpfleger / Altenpfleger (m/w/d),Wiesloch,9,0,49.2929847,8.6893085
382,41262185,91074,Lead Basis Software Entwickler (m/w/d),Herzogenaurach,15,0,49.5782416,10.8819032
383,41561173,31224,Betriebsingenieur Maschinentechnik (m/w/d),Peine,24,0,52.3307295,10.2732008
384,37257097,82319,Stationsassistent (m/w/d) im Kreißsaal,Starnberg,19,0,48.0090878,11.3258686
385,37792222,55131,Gesundheits- und Krankenpflegehelfer*in (m/w/d),Mainz,42,0,49.9889241,8.2716688
386,38614735,91074,Simulationsingenieur elektrische Antriebssysteme (m/w/d),Herzogenaurach,19,0,49.5782416,10.8819032
387,38987131,55118,Mitarbeiter Entgeltabrechnung / Payroll Specialist (m/w/d),Mainz,24,0,50.0093882,8.256409300000001
388,42408208,50679,Ingenieur:in / Betontechnologe / Betontechnologin (m/w/d),Köln,26,0,50.934707,6.9759562
389,38719976,40227,Ingenieur*in  für die Zustandsbewertung der Kanalisation,Düsseldorf,19,0,51.2153849,6.7975715
390,39427568,44795,EMV Ingenieur (m/w/d) als Teamleiter für den Automotive Bereich,Bochum,22,0,51.449197,7.195777899999999
391,36488416,51067,Kundenberater für Versicherungen (m/w/d),Köln,15,0,50.9649145,7.039602299999999
392,42378309,60549,IT-Trainer (m/w/d),Frankfurt,33,0,50.041381,8.5800547
393,37563191,81379,Pflegefachhelfer (m/w/d),München,40,0,48.0966922,11.5286651
394,39422902,76131,Wissenschaftler*in im Bereich Objekterkennung,Karlsruhe,43,0,49.0116951,8.4303821
395,39154216,10117,Bauingenieur Straßenplanung (w/m/d),Berlin,24,0,52.5155098,13.3847539
396,40891530,94032,Lehrstuhl für Neuere und Neueste Geschichte (W 3),Passau,6,0,48.5718453,13.4607296
397,38561310,50933,Inbetriebnehmer / Servicetechniker (all genders) Schwerpunkt: Recycling / Bergbau,Köln,23,0,50.94010859999999,6.8851368
398,35967830,47051,Teamleitung Flugservice (m/w/d),Duisburg,19,0,51.4328048,6.7708325
399,41933684,60596,Klinikmanagerin / Klinikmanager,Frankfurt,30,0,50.0990675,8.6738622
400,41904498,85354,Leiter (m/w/d) Beratungsstandort Lerchenfeld,Freising,22,0,48.3948737,11.6949987
401,43131124,38640,Bauingenieur (w/m/d) für den Bereich Straßenentwurf,Goslar,32,0,51.9113762,10.4381381
402,37371648,33098,PROJEKTLEITER SCHLÜSSELFERTIGBAU (m/w/d),Paderborn,16,0,51.7113515,8.754257599999999
403,36409426,76137,Order Processing Manager (w/m/d),Karlsruhe,18,0,48.99995329999999,8.4173066
404,37683915,76131,Bauingenieur / Architekt / Bautechniker (m/w/d) im Technischen Einkauf,Karlsruhe,21,0,49.0116951,8.4303821
405,39217603,12489,Assistent (m/w/d) Probenmanagement,Berlin,24,0,52.4370179,13.5470509
406,34794128,81541,"Erzieher, päd. Fachkraft, Sozialpädagog*in (m/w/d)",München,50,0,48.121161,11.5848088
407,42253582,75179,Ingenieur*in (m/w/d) in der Projektleitung von Projekten im Bereich Automotive | Industrie,Pforzheim,18,0,48.903762,8.6528701
408,40167573,70173,Schulhausmeister*in (m/w/d),Stuttgart,39,0,48.78270269999999,9.1828631
409,42624108,68159,Manager Strategie Anlagen und Netze (m/w/d) mit dem Schwerpunkt Strategisches Asset Management,Mannheim,28,0,49.49200020000001,8.455677999999999
410,42025333,77815,Business Development R&D E-Mobility (m/w/d),Bühl,32,0,48.6824642,8.1500317
411,37157595,26655,IT-Anwendungsbetreuer (m/w/d),Westerstede,41,0,53.2782834,7.9322363
412,41908434,12205,"Technische*r Sachbearbeiter*in (m/w/d) der Fachrichtung Wirtschaftsingenieurwesen, Maschinenbau oder einer vergleichbaren Fachrichtung",Berlin,37,0,52.4331886,13.2980095
413,40122872,94469,"Professor:in (d|m|w) der BesGr. W2; für das Lehrgebiet ""Informatik und Modellierung von Energiesystemen""",Deggendorf,35,0,48.8456799,12.9779283
414,37941287,79761,Rettungsassistenten /  Notfallsanitäter (m/w/d) Zentrale Notaufnahme,Waldshut-Tiengen,13,0,47.6533265,8.2721269
415,43352034,12103,Elektriker:in oder Mechatroniker:in (m/w/d) für Gleisbaumaschinen,Berlin,24,0,52.4639426,13.3728893
416,42780132,60486,API Entwickler (m/w/d),Frankfurt,43,0,50.1130657,8.6252221
417,40342855,71364,Stationssekretärin (m/w/d),Winnenden,39,0,48.8697946,9.4066135
418,38252897,60486,Teamleiter Kantinenbetrieb (w/m/d),Frankfurt,39,0,50.1130657,8.6252221
419,37740132,30519,Elektro(anlagen)installateur (m/w/d),Hannover,28,0,52.3358144,9.7737388
420,36122123,95448,Referent - Area Management Grid Field Operations Offshore (m/w/d),Bayreuth,19,0,49.93635690000001,11.61009
421,43497938,41453,Elektroniker (*),Neuss,18,0,,
422,37136345,52146,Kalkulator (m/w/d),Würselen,19,0,50.8193814,6.1462316
423,37751664,69115,Facharzt für Arbeitsmedizin oder Arzt mit der Zusatzbezeichnung Betriebsmedizin (m/w/d),Heidelberg,12,0,49.4035106,8.681388
424,36906522,59439,Niederlassungsleiter (w/m/d) Luft- und Seefracht,Holzwickede,35,0,51.48774239999999,7.635929799999999
425,39584356,85399,Monteur / Mechatroniker Senior (m/w/d) im Sondermaschinenbau,Hallbergmoos,23,0,48.3094709,11.7391141
426,36986990,90547,Steuerfachangestellte/n / Buchhalter/in (m/w/d),Stein,26,0,49.3989019,10.9811563
427,38278190,53113,Facility Manager Services (w/m/d),Bonn,59,0,50.71941589999999,7.1221114
428,37363119,81379,Küchenhilfe (m/w/d),München,35,0,48.0966922,11.5286651
429,40207721,6242,Spezialist Trocknungs- und Kälteanlagen (w/m/d),Braunsbedra,16,0,51.279173,11.8881677
430,40934321,80807,Meister:in Baumaschinentechnik (m/w/d),München,27,0,48.1865394,11.585399
431,41370565,44137,Ingenieur für Wegerechte und Grünflächenmanagement (m/w/d),Dortmund,20,0,51.5081979,7.441617300000001
432,36559040,60596,Wissenschaftliche Mitarbeiterin / Mitarbeiter Drittmittelprojekt Medizininformatik,Frankfurt,45,0,50.0990675,8.6738622
433,38074153,12205,"Wissenschaftliche*r Mitarbeiter*in (m/w/d) der Fachrichtung Ingenieurwissenschaften, Informatik, technische Softwareentwicklung, Mathematik, Physik, Data Engineering oder vergleichbar",Berlin,74,0,52.4331886,13.2980095
434,39372745,30559,Kaufmännischer Mitarbeiter (m/w/d) Entgeltabrechnung / Lohnbuchhaltung / Payroll,Hannover,27,0,52.3624123,9.8411816
435,43116592,70376,"Servicehelfer (m/w/d) für die nephrologische / orthopädisch-unfallchirurgische Station, Schwerpunkt Alterstraumatologie",Stuttgart,19,0,48.82035339999999,9.2031939
436,37117604,80331,"Sachgebietsleiter*in Versorgungstechnik, Gebäudetechnik (w/m/d)",München,50,0,48.1362105,11.572893
437,39261161,1237,Produktmanager (m/w/d),Dresden,28,0,51.0134206,13.7913392
438,39222210,70173,Vermessungstechniker*in (m/w/d),Stuttgart,44,0,48.78270269999999,9.1828631
439,39183944,72290,Ausbilder (m/w/d) Mechatronik,Loßburg,21,0,48.3975208,8.4676042
440,35742823,35418,IT-Anwendungsbetreuer / Solution Architect (m/w/d),Buseck,28,0,50.6082767,8.782881099999999
441,38986932,87600,Medizinische Fachangestellte (m/w/d) für das Chefarztsekretariat Anästhesie,Kaufbeuren,20,0,47.876303,10.6260634
442,36228793,96149,Fachinformatiker für Systemintegration als MANUFACTURING IT-Specialist (m/w/d),Breitengüßbach,34,0,49.9741688,10.9067044
443,36983497,96450,Teamlead (w/m/d) Schadenfallmanagement für die Kfz- und Sachversicherung,Coburg,28,0,50.255698,10.9550818
444,41251519,80939,Ingenieur/Techniker Testing Komfortelektronik (m/w/d),München,27,0,48.201196,11.6145677
445,41060162,45359,Network Professional (m/w/d),Essen,50,0,51.465929,6.9259698
446,38965015,65189,Gruppenleiter (m/w/d) Versorgungstechnik,Wiesbaden,30,0,50.0726721,8.2570237
447,39777033,85238,Personalsachbearbeiter / Lohn- und Gehaltsbuchhalter (m/w/d),Petershausen,24,0,48.41123349999999,11.4715161
448,43679498,70176,Pflegefachkraft (m/w/d) für die ambulante Pflege,Stuttgart,7,0,48.7767989,9.1616733
449,39759979,95448,Genehmigungsplaner (m/w/d),Bayreuth,29,0,49.93635690000001,11.61009
450,40432576,33100,Auffällig,Paderborn,0,0,51.7212792,8.834156199999999
451,40249301,86529,Team-/ Abendsekretär (m/w/d),Schrobenhausen,29,0,48.5629444,11.2322974
452,36979081,80539,IT-Experte*in SAP HCM,München,25,0,48.1447027,11.5821606
453,37877831,60596,Gruppenleitung - Kreißsaal,Frankfurt,16,0,50.0990675,8.6738622
454,36774256,87459,Logistikplaner (m/w/d) in Voll- oder Teilzeit,Pfronten,44,0,47.5766418,10.5264351
455,36324880,30159,Abteilungsleiter Anwendungsentwicklung (m/w/d),Hannover,35,0,52.3749839,9.7388153
456,42667720,74321,Projektleiter Applikationstechnik Mechanik (m/w/d),Bietigheim-Bissingen,24,0,48.95356820000001,9.1241772
457,42369704,69123,Global Claim Manager (m/w/d),Heidelberg,21,0,49.4160136,8.617178599999999
458,38561379,80331,Baureferendar*in Fachrichtung Straßenbau (w/m/d),München,41,0,48.1362105,11.572893
459,40220589,90431,Qualitätsingenieur (m/w/d) Entwicklungsqualität,Nürnberg,31,0,49.4459471,11.0267573
460,36609341,70567,Mitarbeiter:in Qualitätsprüfung Planung - »Plancheck«,Stuttgart,29,0,48.7226206,9.1584836
461,38614779,89312,IT-Anwendungsbetreuer (m/w/d),Günzburg,20,0,48.4707826,10.278213
462,39032767,88212,Ingenieur/in (m/w/d) Breitbandausbau,Ravensburg,26,0,47.7837629,9.6151647
463,37374520,52068,Product Manager Service Provider (m/w/d),Aachen,36,0,50.7794144,6.1339006
464,36599631,80807,Mechaniker:in bzw. Mechatroniker:in (m/w/d),München,20,0,48.1865394,11.585399
465,40113853,91074,Systementwickler mit Schwerpunkt Funktionale Sicherheit (m/w/d),Herzogenaurach,36,0,49.5782416,10.8819032
466,39297554,75175,"Betriebsingenieur, Ingenieur (Fachrichtung Energie- / Versorgungs- / Elektrotechnik o. ä.) - technisches Gebäudemanagement (m/w/d)",Pforzheim,32,0,48.88593849999999,8.7208104
467,40950992,52146,Kalkulator (m/w/d),Würselen,24,0,50.8193814,6.1462316
468,41108844,95445,Medizinischer Fachangestellter (m/w/d) für die Röntgenanmeldung ,Bayreuth,56,0,49.9517152,11.5608931
469,38450406,94469,Technische:r Mitarbeiter:in (d|m|w) im Bereich Angewandte Informatik,Deggendorf,28,0,48.8456799,12.9779283
470,40945249,71034,R&D Hardware Qualification Engineer (m/f/d),Böblingen,15,0,48.6762593,8.9773145
471,38953087,55122,Process Owner Warehouse Management,Mainz,33,0,50.0017921,8.2361562
472,42559128,94469,Junior Wissenschaftsredakteur:in (d|m|w),Deggendorf,50,0,48.8456799,12.9779283
473,40620723,72072,"IT Security Incident Responder (m/w/d) (IT-Forensiker, Informatiker, IT Security Engineer, Wirtschaftsinformatiker o. ä.)",Tübingen,37,0,48.4936788,9.052606
474,40241020,72764,Bachelor of Arts (m/w/i) Public Management - Sozialamt,Reutlingen,27,0,48.4933416,9.2147435
475,36567328,78476,Stellvertretende Küchenleitung (m/w/d),Allensbach,58,0,47.7147032,9.0691908
476,38284105,10245,Elektroingenieur:in (m/w/d) mit Schwerpunkt elektrotechnische Anlagen in Gebäuden,Berlin,34,0,52.5019332,13.4554471
477,42548225,86156,Physiotherapeut (m/w/d) Neurochirurgie,Augsburg,16,0,48.3920947,10.8553557
478,38448602,55122,Zerspanungsmechaniker*in Dreh-/ Frästechnik,Mainz,18,0,50.0017921,8.2361562
479,35628248,60311,Spezialist (w/m/d) Operations OTC Derivate,Frankfurt,23,0,50.1100897,8.6822492
480,39200466,79761,Oberarzt (m/w/d) Innere Medizin,Waldshut-Tiengen,9,0,47.6533265,8.2721269
481,42593296,76149,Projektleiter für Betriebsfunk (m/w/d),Karlsruhe,25,0,49.0487963,8.4095757
482,38614458,85737,Backoffice und Projektassistenz (m/w/d),Ismaning,22,0,48.2320646,11.7067787
483,42448527,63179,Leiter Finanzen (m/w/d),Obertshausen,23,0,50.0769758,8.8625745
484,40632364,97980,"Zählermonteur (m/w/d) im Außendienst in den Sparten Strom, Gas, Wasser, Wärme",Bad Mergentheim,17,0,49.4636557,9.7532256
485,36911363,82205,Projektmanager / Projektleiter (m/w/d) Geschäftsfeld Halbleiter,Gilching,21,0,48.1156672,11.2640182
486,39384808,72475,QS Techniker / Ingenieur (m/w/d),Bitz,15,0,48.2441316,9.0926542
487,40242310,60486,Disponent (m/w/d) Bau & Betrieb Gas / Wasser,Frankfurt,24,0,50.1130657,8.6252221
488,41084916,22041,System- und Anlagenkoordinator (m/w/d),Hamburg,25,0,53.5754959,10.0807485
489,37034857,25421,Energiemanagementbeauftragter (m/w/d),Pinneberg,24,0,53.6466311,9.7859847
490,38906843,50735,Teamleitungen für den Bereich Besoldung (m/w/d),Köln,28,0,50.9767582,6.973287099999999
491,41530227,45131,Product Owner - Customer Care (m/w/d),Essen,19,0,51.4296308,7.0039007
492,37702833,10115,Senior Experte (w/m/d) für Energiemanagement und Digitalisierung in Gebäuden,Berlin,25,0,52.532614,13.3777036
493,39046857,19061,Value Stream Manager Industrialisation (m/w/d),Schwerin,26,0,53.590317,11.3977818
494,42548071,60549,Engagement Manager Captive (m/w/d) in Teilzeit möglich,Frankfurt,33,0,50.041381,8.5800547
495,40120435,22844,Gruppenleiter (m/w/d) Serienbetreuung,Norderstedt,18,0,53.7263514,10.0117748
496,36119418,72764,Sachbearbeiter (m/w/i) für den Bereich Unterhaltsvorschusskasse,Reutlingen,33,0,48.4933416,9.2147435
497,38561527,61352,Qualifizierungsingenieur (m/w/d),Bad Homburg,37,0,50.2171728,8.6540643
498,38328132,22047,Process Consultant (m/w/d) Sales / SAP,Hamburg,40,0,53.58895099999999,10.0986376
499,35661691,74321,Projekt Manager Control Systems: Schwerpunkt Materialversorgung (m/w/d),Bietigheim-Bissingen,31,0,48.95356820000001,9.1241772
500,38736538,83313,Verfahrensingenieur mit Labortätigkeit (m/w/d),Siegsdorf,28,0,47.8073797,12.6648284
501,40382334,36148,"Bauleiter (m/w/d) für den Bereich Maler, Putz/WDVS, Trockenbau",Kalbach,22,0,50.4286237,9.6407464
502,39035288,94032,Wissenschaftlicher Mitarbeiter/Wissenschaftliche Mitarbeiterin am Lehrstuhl für Informatik mit Schwerpunkt Eingebettete Systeme und Zentrum für Informationstechnologie und Medienmanagement (ZIM),Passau,34,0,48.5718453,13.4607296
503,36995194,74321,SAP HCM (Junior-) Anwendungsentwickler (m/w/d),Bietigheim-Bissingen,25,0,48.95356820000001,9.1241772
504,37939070,32423,Trainer General Automation (m/w/d),Minden,19,0,52.2937952,8.9553818
505,38101295,65189,"Ingenieur Energie- und Versorgungstechnik, Bau- und Umweltingenieur, staatl. geprüfter Techniker, Stadtplaner als Projektleiter (m/w/d) energetische Konzepte",Wiesbaden,32,0,50.0726721,8.2570237
506,39885315,80538,Underwriter (m/w/d) Technische Versicherungen,München,19,0,48.1445812,11.5895274
507,39894620,55116,Sachbearbeitung Beteiligungsmanagement (m/w/d),Mainz,39,0,49.9990416,8.274656499999999
508,41961867,56566,Ergotherapeut (m/w/d),Neuwied,27,0,50.4567833,7.5287797
509,37362404,89522,Head of Projects (m/f/d) HyService,Heidenheim,24,0,48.6628951,10.1658148
510,41299312,44149,"Senior Controller (m,w,d)",Dortmund,23,0,51.5070785,7.4176438
511,39447019,54470,Hauswirtschafter*in (m/w/d),Bernkastel-Kues,39,0,49.9168321,7.0645656
512,36734187,60486,Strategischer Einkäufer (m/w/d) IT,Frankfurt,14,0,50.1130657,8.6252221
513,39568898,72348,Mitarbeiter für die Schleiferei (m/w/d),Rosenfeld,17,0,48.2791195,8.7073763
514,40513523,55131,Qualitätsmanager*in Pflege (m/w/d),Mainz,38,0,49.9889241,8.2716688
515,38824489,6861,Techniker Produktion (m/w/d),Dessau-Roßlau,29,0,51.8958962,12.2016793
516,39855890,70569,Fremdsprachenkorrespondent*in als Assistent*in der Institutsleitung,Stuttgart,43,0,48.7483277,9.089918
517,41106322,93326,Techniker / Ingenieur als Produktentwickler DMU im Kundencenter Mercedes-Benz (m/w/d),Abensberg,28,0,48.825804,11.849226
518,38615046,60431,Vergabemanager*in,Frankfurt,28,0,50.1475439,8.6491154
519,35938957,33649,Fachplaner (m/w/d) für Elektrotechnik (TGA),Bielefeld,19,0,51.97775499999999,8.4602772
520,40916492,63179,Operations Manager (w/m/d) zur Leitung der externen Call Center,Obertshausen,25,0,50.0769758,8.8625745
521,38743443,82234,Technical Author and Coordinator Technical Publications (m/w/d),Weßling,17,0,48.0745108,11.2737002
522,41272010,74653,Mitarbeiter kaufmännischer Vertriebsinnendienst (m/w/d) Channel Partner,Ingelfingen,27,0,49.3043127,9.6979593
523,43132686,50674,Produktionsmitarbeiter (m/w/d),Köln,23,0,50.9346454,6.9331365
524,40443060,10623,"VoIP-Administration - Entgeltgruppe 11 TV-L Berliner Hochschulen, zzgl. einer befristeten Fachkräftezulage* - Beschäftigte*r (d/m/w) in der Informations- und Kommunikationstechnik",Berlin,32,0,52.5070391,13.3283954
525,40053834,82377,Assistenzarzt (m/w/d) in Weiterbildung für Viszeralchirurgie,Penzberg,7,0,47.7630977,11.3829463
526,38247141,13509,Controller (m/w/d) im Cash Management,Berlin,18,0,52.5890862,13.3032995
527,40081547,74523,Projektmanager HR IT (m/w/d),Schwäbisch Hall,28,0,49.1257616,9.7544127
528,43194150,70191,Volljurist als Syndikusrechtsanwalt (m/w/d),Stuttgart,26,0,48.79887799999999,9.1865335
529,38738851,60486,International Trainee (f/m/x) Wholesale Banking,Frankfurt,31,0,50.1130657,8.6252221
530,37030918,40882,Inhouse Consultant CX / CRM (m/w/d),Ratingen,36,0,51.3005563,6.914847399999999
531,38836404,91438,Sekretär:in der Pflegedienstleitung,Bad Windsheim,45,0,49.5198954,10.4005684
532,40180564,10117,Controller (w/m/d),Berlin,35,0,52.5155098,13.3847539
533,38912480,95445,Medizinischer Technologe (m/w/d) für Laboratoriumsanalytik (MTL) für die Pathologie,Bayreuth,26,0,49.9517152,11.5608931
534,38839124,75438,Prüfplaner für Sterilprodukte und sonstiges Zubehör (m/w/d),Knittlingen,28,0,49.0226048,8.7600351
535,36457192,96450,Business Intelligence Data Engineer (w/m/d),Coburg,16,0,50.255698,10.9550818
536,37020181,60596,IT - Support Professional,Frankfurt,51,0,50.0990675,8.6738622
537,38966407,72764,Verwaltungsrechtlicher Sachbearbeiter (m/w/i),Reutlingen,41,0,48.4933416,9.2147435
538,37878576,76185,Produktmanager (m/w/d) im strategischen Einkauf,Karlsruhe,14,0,49.0072171,8.352578099999999
539,38177766,80687,Fachkraft für Arbeitssicherheit / Sicherheitsingenieur (m/w/d),München,29,0,48.1378841,11.5192416
540,41483282,52428,Ingenieur Elektrotechnik Schwerpunkt Antriebstechnik ‎(m/w/d)‎,Jülich,19,0,50.9418933,6.394430799999999
541,39885610,70176,Technischer Projektbetreuer (m/w/d) für den Bereich Vergabe,Stuttgart,29,0,48.7767989,9.1616733
542,39255505,52531,Schichtleiter - Bereich Trockenfrucht (w/m/d),Übach-Palenberg,25,0,50.9253588,6.1177073
543,40084537,85399,Elektromonteur Junior oder Senior (m/w/d) im Sondermaschinenbau,Hallbergmoos,21,0,48.3094709,11.7391141
544,38940456,30159,Treasurer (w/m/d),Hannover,32,0,52.3749839,9.7388153
545,43208044,48653,Stationsassistent:in (w/m/d) am Standort Nottuln,Coesfeld,12,0,51.9097477,7.163694899999999
546,38371135,61231,Klimaanpassungsmanager:in,Bad Nauheim,27,0,50.3822571,8.7387728
547,36709027,75245,Teammitglied im Bereich Laserablation / Senkerodieren (m/w/d),Neulingen,17,0,48.9703747,8.7117688
548,37025553,42697,Teammitglied Finanzcontrolling - Schwerpunkt Einrichtungen der Seniorenhilfe,Solingen,26,0,51.1540297,6.9912361
549,42485814,56130,Mitarbeiter (m/w/d) Office Management / Telefonzentrale und Customer Service,Bad Ems,27,0,50.3505119,7.7227544
550,38561507,39114,"Anlagenmechaniker für Sanitär-, Heizungs- und Klimatechnik (m/w/d)",Magdeburg,12,0,52.0883969,11.7068022
551,40331022,52428,Automation Engineer ‎(m/w/d)‎ ‎,Jülich,28,0,50.9418933,6.394430799999999
552,37939069,32423,Trainer General Automation (m/w/d),Minden,18,0,52.2937952,8.9553818
553,39902495,74172,IT Rolloutmitarbeiter (w/m/d),Neckarsulm,28,0,49.1942456,9.2351573
554,38072316,91074,System Engineer (m/w/d),Herzogenaurach,18,0,49.5782416,10.8819032
555,43091446,92421,Qualitätssicherer und Ausbilder Zugbegleiter & Kundenbetreuer (m/w/d),Schwandorf,31,0,49.3244988,12.076344
556,38072784,78733,Einrichter Pulverpressen / Kalibrieren (m/w/d),Aichhalden,36,0,48.26683569999999,8.402275099999999
557,38245893,6667,Operativer Einkäufer Rohstoffe (w/m/d),Weißenfels,32,0,51.2095819,11.9452512
558,36876456,55127,Planer*in / Projektleiter*in Produktionstechnik,Mainz,44,0,49.9709594,8.1976658
559,40258338,37079,Stellvertretende Leitung / Projektleitung (m/w/d) Facility Management,Göttingen,21,0,51.5551958,9.8883942
560,35731546,10117,Teamleiter (m/w/d) Bewirtschaftungsoptimierung,Berlin,33,0,52.5155098,13.3847539
561,37893449,31319,Disponenten für den Nahverkehr (m/w/d),Sehnde,7,0,52.3134289,9.975787
562,42531804,81829,Pflegefachhelfer / Pflegefachassistenz (m/w/d) in Voll-/ oder Teilzeit,München,29,0,48.1383204,11.6875629
563,40632411,41812,Projektmanager (m/w/d) Arbeits- und Gesundheitsschutz,Erkelenz,22,0,51.07164600000001,6.3195429
564,41646033,81373,Wirtschaftsprüfer / (Senior) Counsel (m/w/d),München,20,0,48.1214727,11.5322563
565,39616498,68161,Test Analyst (m/f/d),Mannheim,12,0,49.4861656,8.470261599999999
566,39762292,28215,Produktionsplaner (gn*),Bremen,27,0,53.0981817,8.812544899999999
567,39193652,70182,Bilanzbuchhalter / Steuerfachangestellte Insolvenzverfahren / Insolvenzbuchhalter (m/w/d),Stuttgart,28,0,48.7772635,9.1875123
568,38072519,30625,Underwriter:in für den Bereich Power und Renewable Energy,Hannover,24,0,52.3763832,9.8026933
569,43468753,86156,"Pflegefachkraft, Heilerziehungspfleger oder Altenpfleger (m/w/d) Forensik",Augsburg,19,0,48.3920947,10.8553557
570,43653969,55232,Monteur Messstellenbetrieb Strom (m/w/d),Alzey,35,0,49.7459852,8.0997494
571,40172352,6188,Logistikplaner (m/w/d),Landsberg,33,0,51.5324258,12.1155511
572,40217768,90408,Elektroniker (m/w/d),Nürnberg,14,0,49.4655524,11.0769079
573,37688670,60327,Objektbetreuer:in (m/w/d),Frankfurt,36,0,50.1005233,8.6544487
574,40733860,74889,Junior Sortimentsmanager (m/w/d),Sinsheim,19,0,49.24662499999999,8.8948387
575,42205579,86156,Pflegefachkräfte / OTA / Hybrid-OP-Techniker (m/w/d) Neurochirurgie,Augsburg,17,0,48.3920947,10.8553557
576,37314626,20099,Versicherungsprofi (m/w/d) Kundenberatung Lebensversicherung,Hamburg,30,0,53.55808469999999,10.011979
577,40893421,50226,Business Intelligence (BI) Consultant (m/w/d),Frechen,29,0,50.9089383,6.7920994
578,43632581,50667,Abteilungsleiter:in Marktfolge Kreditgeschäft,Köln,26,0,50.9386437,6.9538847
579,42653401,50679,Asphaltbauer:in (m/w/d),Köln,23,0,50.934707,6.9759562
580,41833950,21339,Fachinformatiker (m/w/d) für das Fachressort Geschäftsanwendungen (KIS-System),Lüneburg,29,0,53.2536096,10.3885867
581,39813989,55122,Application Manager*in SAP Transportation Management (TM),Mainz,15,0,50.0017921,8.2361562
582,37371469,33098,MONTEUR STAHLBETONFERTIGTEILMONTAGE (m/w/d),Paderborn,32,0,51.7113515,8.754257599999999
583,42547229,51469,Mechatroniker / Techniker / Elektriker als Gerätewart/in (m/w/d) für die Abteilung Technik,Bergisch Gladbach,24,0,50.987157,7.104717099999999
584,40136824,44143,Elektroingenieur Maschinensicherheit (m/w/d),Dortmund,25,0,51.5195303,7.5123813
585,37325508,48529,"Ingenieur:in (Dipl.-Ing. FH bzw. Bachelor) der Fachrichtung Bauingenieurwesen, Architektur, Brandschutz oder einen vergleichbaren Studiengang",Nordhorn,19,0,52.4003033,7.0773237
586,42471245,82256,Senior Softwareentwickler Künstliche Intelligenz FCAS (gn),Fürstenfeldbruck,34,0,48.17870689999999,11.23683
587,39760257,65203,Mitarbeiter Kundenservice/-support (m/w/d),Wiesbaden,27,0,50.0408985,8.231266699999999
588,38477186,82024,System Engineering mit Schwerpunkt Krypto (w/m/d),Taufkirchen,30,0,48.0389787,11.6265608
589,35656346,82377,Gesundheits- und Krankenpfleger (m/w/d) und Altenpfleger (m/w/d) als Dauernachtwache,Penzberg,31,0,47.7630977,11.3829463
590,36405198,55116,Arzt / Facharzt als Wissenschaftlicher Referent (m/w/d),Mainz,21,0,49.9990416,8.274656499999999
591,40727447,22335,Elektrotechniker / Elektroniker (m/w/d) Technische Dokumentation,Hamburg,25,0,53.6283203,10.0058214
592,42547000,10117,Bauwerksprüftechniker (m/w/d),Berlin,37,0,52.5155098,13.3847539
593,40912825,53757,IT Support m/w/d,Sankt Augustin,44,0,50.7589143,7.201223300000001
594,38697512,56068,Staatlich geprüften Techniker (m/w/d) der Fachrichtung Bautechnik - Schwerpunkt Tiefbau - oder vergleichbare Qualifikation,Koblenz,16,0,50.3511528,7.595195899999999
595,37690233,68161,Procurement Manager | Strategischer Einkäufer (m/w/d),Mannheim,29,0,49.4861656,8.470261599999999
596,39651824,68161,Engineering Experte (m/w/d),Mannheim,30,0,49.4861656,8.470261599999999
597,39227457,75179,Ingenieur*in (m/w/d) in der Projektsteuerung Bereich Anlagen / Energie,Pforzheim,27,0,48.903762,8.6528701
598,41644239,70176,Alltagsbegleitung (m/w/d) mit Kocherfahrung stationär,Stuttgart,20,0,48.7767989,9.1616733
599,42742744,61191,Erzieher (w/m/d) Kindheitspädagogen (w/m/d),Rosbach v.d. Höhe,23,0,50.2806792,8.7070547
600,37331319,76133,Stellvertretende Sachgebietsleitung Arbeitszeitmanagement,Karlsruhe,24,0,49.00674979999999,8.393843
601,43357868,72764,Sachgebietsleiter (m/w/i) Wohnheimbetrieb,Reutlingen,26,0,48.4933416,9.2147435
602,35359056,72764,Sachbearbeiter (m/w/i) im Bereich Grundsicherung und Lebensunterhalt nach SGB XII,Reutlingen,39,0,48.4933416,9.2147435
603,38865253,70176,Pflegefachkraft (m/w/d) für den Wochenenddienst,Stuttgart,10,0,48.7767989,9.1616733
604,38627965,85748,Venture Consultant Food & Agritech Incubation (m/f/d),Garching,22,0,48.2398824,11.630583
605,42912702,23795,Leiter*in Eingliederungshilfe für Erwachsene (m/w/d),Bad Segeberg,35,0,53.92727480000001,10.2932676
606,39664281,69115,Gerätewart (m/w/d),Heidelberg,46,0,49.4035106,8.681388
607,39632908,68161,Architekt LP 1-8 (m/w/d),Mannheim,21,0,49.4861656,8.470261599999999
608,39818027,30900,Ingenieur (m/w/d) als Elektroniker / Entwickler Audioübertragungssysteme,Wedemark,45,0,52.5390729,9.7226741
609,38477799,45128,Meister / Techniker  (m/w/d) EMSR / Elektrotechnik,Essen,14,0,51.4452228,7.0078317
610,40810964,83457,Sozialpädagoge (m/w/d) Fach-/Sozialdienst,Bayerisch Gmain,18,0,47.7160763,12.8965271
611,39975696,24306,Hochbauingenieurin / Hochbauingenieur (m/w/d) für die Bauunterhaltung,Plön,25,0,54.16839510000001,10.4322946
612,40513671,79761,Gesundheits- und  Krankenpfleger (m/w/d) für den OP oder OTA (m/w/d),Waldshut-Tiengen,16,0,47.6533265,8.2721269
613,42568652,65189,Release Train Engineer Finanzen und Gesamtrisikomanagement (m/w/d),Wiesbaden,28,0,50.0726721,8.2570237
614,37515834,24114,Mitarbeiter Kanzleiprozesse / Office Manager / Rechtsanwaltsfachangestellte im Bereich Wirtschaftsstrafrecht (m/w/d),Kiel,25,0,54.3144934,10.1125012
615,39703656,78532,Ärztliche Leitung (m/w/d) für das zertifizierte Brustzentrum,Tuttlingen,18,0,47.9709599,8.8117805
616,36036252,22941,Technischer Produktdesigner (gn),Bargteheide,18,0,53.7215478,10.260844
617,38467483,64293,Mitarbeiter/-innen (m/w/d) für die ambulante Betreuung auf §43b Basis,Darmstadt,19,0,49.87763469999999,8.6285366
618,40893420,82024,Industriemechaniker*in (w/m/d),Taufkirchen,27,0,48.0389787,11.6265608
619,38243742,76437,Kaufmännischer Mitarbeiter (m/w/d) im Vertriebsinnendienst,Rastatt,36,0,48.862603,8.1769679
620,39568980,50735,Teamleitung für den Bereich Entgelt (m/w/d),Köln,40,0,50.9767582,6.973287099999999
621,38007843,24113,Assistenz (m/w/d) der Bereichsleitung Risikomanagement mit Schwerpunkt Kapitalanlagencontrolling,Kiel,24,0,54.2813052,10.08069
622,37933943,50769,Leitender Betriebsingenieur PLT (m/w/d),Köln,23,0,51.0560173,6.874194399999999
623,41645338,83700,Betreuungs(fach)assistenz (m/w/d),Rottach-Egern,26,0,47.65965569999999,11.8091709
624,37162917,20251,IT-Spezialist (w/m/d) Schwerpunkt Datenintegration für Klinik und Forschung,Hamburg,29,0,53.5947669,9.982105
625,38910820,55130,Projektkaufmann:frau (m/w/d),Mainz,20,0,49.9516812,8.322872799999999
626,36681982,82256,Manager Export Control (gn),Fürstenfeldbruck,29,0,48.17870689999999,11.23683
627,43126408,61352,Produktionsfacharbeiter (m/w/d) (Schwerpunkt Abfüllung Großgebinde),Bad Homburg,23,0,50.2171728,8.6540643
628,43266494,44137,Ingenieur erneuerbare Gase als Projektleiter Planung & Bau (m/w/d),Dortmund,27,0,51.5081979,7.441617300000001
629,36196513,60327,Objektleiter:in (m/w/d),Frankfurt,30,0,50.1005233,8.6544487
630,39299465,60598,Mitarbeiter Instandhaltung Schwerpunkt Mechanik (m/w/d),Frankfurt,27,0,50.08063,8.6780768
631,37513634,50679,"Fachwerker:in Straßen-,Tief-, Hoch- und Ingenieurbau (m/w/d)",Köln,22,0,50.934707,6.9759562
632,36602956,80939,Lean Manager (m/w/d),München,26,0,48.201196,11.6145677
633,41903020,63179,GIS-Operator (w/m/d),Obertshausen,26,0,50.0769758,8.8625745
634,39304148,22880,Strategic Procurement Manager Packaging and Components (m/w/d),Wedel,33,0,53.5936117,9.6991755
635,37330830,48653,Teamleitung für kardiologischen Funktionsbereich (w/m/d) mit #Herzblut gesucht!,Coesfeld,17,0,51.9097477,7.163694899999999
636,39657136,44263,Central Sales Controller (w/m/d),Dortmund,27,0,51.49074510000001,7.5079783
637,43187510,80331,Projektingenieur*in für die Planung Straßentunnel (w/m/d),München,31,0,48.1362105,11.572893
638,37413797,76131,Strategische*r Einkäufer*in (m/w/d),Karlsruhe,19,0,49.0116951,8.4303821
639,40698150,5445,Project Coordinator Payments (m/w/d),Schengen,21,0,,
640,42421828,81373,Revisor*in Interne Revision (m/w/d),München,40,0,48.1214727,11.5322563
641,38144186,68161,IT ERP-Berater (m/w/d),Mannheim,29,0,49.4861656,8.470261599999999
642,39584396,85399,Servicetechniker (m/w/d) im Sondermaschinenbau,Hallbergmoos,15,0,48.3094709,11.7391141
643,39218411,33790,Fachkraft (m/w/d) Arbeitssicherheit,Halle,23,0,52.03598,8.3172114
644,42548226,86156,Psychologe (m/w/d) für die gerontopsychiatrische Ambulanz,Augsburg,28,0,48.3920947,10.8553557
645,36798766,51105,FTL Disponent (m/w/d),Köln,25,0,50.9228362,6.9993352
646,35745237,95445,Assistenzarzt (m/w/d) für die Klinik für Geriatrie,Bayreuth,10,0,49.9517152,11.5608931
647,40122600,49439,Personalsachbearbeiter (m/w/d) mit dem Schwerpunkt Lohn- und Gehaltsabrechnung,Steinfeld,24,0,52.6008065,8.205019799999999
648,38731002,8615,Trainee zur Einrichtungsleitung (w/m/d),Augsburg,37,0,,
649,39569174,17291,Projektingenieur (m/w/d),Dauerthal,22,0,53.3193989,13.8724781
650,40909535,65812,CAD Consultant (m/w/d),Bad Soden,23,0,50.15676759999999,8.4897373
651,37401171,29633,Spezialist (m/w/d) Gebäudeautomation,Munster,18,0,52.9905538,10.0809352
652,39894052,71364,Bauzeichner/in (m/w/d) Fachrichtung Tief- und Straßenbau,Winnenden,19,0,48.8697946,9.4066135
653,40605232,79098,"Diplom (FH) oder Bachelor Bauingenieurwesen oder vergleichbar (z.B. Vermessung, Infrastrukturmanagement)",Freiburg,20,0,47.9938544,7.8467583
654,37415171,79341,Projektleiter Industriebau (m/w/d),Kenzingen,21,0,48.1888573,7.8056569
655,42598031,69493,Tragwerksplaner (m/w/d) für Parkhäuser,Hirschberg,36,0,49.5085013,8.6556961
656,36870893,75438,Regulatory Affairs Manager CRS (m/w/d),Knittlingen,32,0,49.0226048,8.7600351
657,38938132,91074,Cost Value Engineer Mechanik (m/w/d),Herzogenaurach,28,0,49.5782416,10.8819032
658,40258345,37079,SAP Inhouse Consultant (m/w/d),Göttingen,21,0,51.5551958,9.8883942
659,38466405,81669,Projektkaufmann/Baukaufmann (m/w/d) Infrastrukturprojekte,München,12,0,48.1137542,11.6081068
660,36876067,78733,Qualitätsvorausplaner (m/w/d),Aichhalden,26,0,48.26683569999999,8.402275099999999
661,39694893,1129,Dipl.-Elektrotechniker (m/w/d) in der Projektentwicklung,Dresden,27,0,51.0943744,13.7205411
662,40970118,8541,Automatisierungstechniker (w/m/d),Neuensalz,23,0,50.5035535,12.2239868
663,39700553,68161,Elektronikentwickler (m/w/d),Mannheim,15,0,49.4861656,8.470261599999999
664,41495468,82024,Projektverantwortliche*r Entwicklung für optische Airborne Aufklärung (w/m/d),Taufkirchen,25,0,48.0389787,11.6265608
665,40169453,45879,Projektmanager (m/w/d) Vertrieb B2C - Schwerpunkt Vermarktung Wärmelösungen,Gelsenkirchen,53,0,51.5084358,7.097707
666,37359386,48499,IT Administrator (m/w/d),Salzbergen,34,0,52.3147686,7.338750399999999
667,38509253,64372,Mechatroniker / Elektrotechniker / Automatisierungstechniker * Schwerpunkt Prozessleittechnik,Ober-Ramstadt,19,0,49.8221211,8.749378499999999
668,41267779,78628,Einkäufer (m/w/d) im Projektteam,Rottweil,27,0,48.1634481,8.646821
669,40095949,22041,Arbeitsvorbereiter (m/w/d),Hamburg,17,0,53.5754959,10.0807485
670,36955902,22085,Bereichsleitung Vertriebs- & Digitalprozesse (m/w/d),Hamburg,25,0,53.5730684,10.0151198
671,41898194,30159,Senior Exchange Administrator (m/w/d),Hannover,31,0,52.3749839,9.7388153
672,38244866,31855,Inhouse CRM-Consultant w/m/d,Aerzen,34,0,52.051324,9.2522609
673,37314766,91074,Einkäufer Geschäftsbereich Ventiltriebssysteme (m/w/d),Herzogenaurach,21,0,49.5782416,10.8819032
674,41640269,60549,Linux Administrator (m/w/d),Frankfurt,39,0,50.041381,8.5800547
675,37567777,71672,Architekt / Bauingenieur (m/w/d),Marbach a. Neckar,49,0,48.9370133,9.2672764
676,40700718,94032,Akademische Rätin / Akademischer Rat (m/w/d) in der Funktion einer Lehrkraft für besondere Aufgaben im Bereich Psychologie,Passau,32,0,48.5718453,13.4607296
677,39760270,56073,Mitarbeiter (m/w/d) für das Controlling/die Kollektivsteuerung der Debeka Bausparkasse AG,Koblenz,22,0,50.3481531,7.5616813
678,39632690,68161,Energiemanager (m/w/d),Mannheim,14,0,49.4861656,8.470261599999999
679,38561803,20457,Projektassistent (m/w/d) im Bereich Schifffahrt,Hamburg,44,0,53.53164839999999,9.9852574
680,37373520,80807,Werkstatthelfer:in (m/w/d),München,19,0,48.1865394,11.585399
681,40760918,63674,Technischer Redakteur Maschinen- und Anlagenbau (m/w/d),Altenstadt,15,0,50.2830501,8.948226499999999
682,36031997,86156,Diätassistent (m/w/d),Augsburg,44,0,48.3920947,10.8553557
683,38144918,60528,Senior Compliance Manager (m/w/d) Fachgebiet Auslagerung,Frankfurt,22,0,50.0734195,8.6361502
684,40214219,81735,Betreuungskraft (m/w/d) in Teilzeit für die Tagespflege,München,37,0,48.1091485,11.6463656
685,41835474,70839,Betreuungskräfte (m/w/d) für die Kernzeitbetreuung in einer Waldschule,Gerlingen,48,0,48.7908056,9.0651574
686,36328344,24103,Technische Assistentin / Technischer Assistent (w/m/d),Kiel,4,0,54.323924,10.1315442
687,36739773,10179,Ingenieurin / Ingenieur Barrierefreier Ausbau für die Verkehrsanlagen Oberfläche (w/m/d),Berlin,29,0,52.5121401,13.414046
688,42303478,4002,Planungsingenieurin operative Planung Wärme (w/m),Basel,35,0,,
689,38339662,60596,Stellvertretende Gruppenleitung  mit Schwerpunkt fachliche Führung -  Spezialstation zur Akut- und Notfallbehandlung psychischer Störungen,Frankfurt,30,0,50.0990675,8.6738622
690,39372009,70567,Projektleiter:innen im schlüsselfertigen Hochbau (m/w/d),Stuttgart,33,0,48.7226206,9.1584836
691,40553059,61352,Personalcontroller / HR-Controller (m/w/d),Bad Homburg,34,0,50.2171728,8.6540643
692,37962291,24103,Referent (m/w/d) für Beauftragtenwesen und Administration im Bereich medizinische Labordiagnostik,Kiel,43,0,54.323924,10.1315442
693,38496011,86156,Oberarzt Psychosomatische Medizin und Psychotherapie (m/w/d),Augsburg,24,0,48.3920947,10.8553557
694,40051785,60596,Transplantationskoordination für Stammzelltherapien -  Klinik für Kinder- und Jugendmedizin,Frankfurt,28,0,50.0990675,8.6738622
695,42547020,88471,Angebotsmanager (m/w/d),Laupheim,22,0,48.2260625,9.8554682
696,36178585,96231,SCADA Engineer (m/w/d),Bad Staffelstein,51,0,50.1024127,11.0330064
697,43288944,59557,Servicetechniker / Kundendienstmonteur (m/w/d) SHK,Lippstadt,24,0,51.6560952,8.3485737
698,37970322,71384,Projektierungsingenieur (m/w/d),Weinstadt,23,0,48.8105304,9.3868206
699,37419071,94032,Doktorandin / Doktorand (m/w/d) am Lehrstuhl für Multilinguale Computerlinguistik II,Passau,43,0,48.5718453,13.4607296
700,37115408,77815,Spezialist Leistungselektronik-Inbetriebnahme im Bereich E-Mobilität (m/w/d),Bühl,18,0,48.6824642,8.1500317
701,41285259,55131,Medizinisch-Technische*r Laboratoriumassistent*in (m/w/d),Mainz,26,0,49.9889241,8.2716688
702,36941158,74321,Facheinkäufer (m/w/d) Commodities (befristet),Bietigheim-Bissingen,28,0,48.95356820000001,9.1241772
703,42412330,71139,Pilote Robotique (h/f),Ehningen,14,0,48.6584785,8.9461595
704,38074174,83395,Technischer Systembetreuer (m/w/d),Freilassing,46,0,47.8480123,12.9707896
705,38638986,82319,Head of Manufacturing (w/m/d),Starnberg,41,0,48.0090878,11.3258686
706,40799689,79111,Leitung Gebührenkalkulation (m/w/d) Vollzeit/unbefristet,Freiburg,27,0,48.0054911,7.785793099999999
707,42408730,95445,Oberarzt (m/w/d) Gynäkologie mit Lehr- und Forschungstätigkeit,Bayreuth,1,0,49.9517152,11.5608931
708,36959036,68161,CSR Manager (100% Remote)  (m/w/d),Mannheim,15,0,49.4861656,8.470261599999999
709,37406685,45128,SAP-Modulbetreuer/in (m/w/d) für den Bereich HR,Essen,44,0,51.4452228,7.0078317
710,43265233,64646,Traffic Manager (m/w/d) Contact-Center,Heppenheim,20,0,49.6430169,8.6675419
711,39227315,63263,Klimaanpassungsmanager*in (w/m/d),Neu-Isenburg,43,0,50.0521661,8.695244599999999
712,38984956,49477,Technischer Systemplaner Elektrotechnik (m/w/d),Ibbenbüren,23,0,52.2750008,7.7099696
713,39815264,65189,Sachbearbeitung Administration + Finanzen (m/w/d),Wiesbaden,30,0,50.0726721,8.2570237
714,36596173,60311,Bauingenieur:in oder Geograph:in (w/m/d) Verkehrswesen,Frankfurt am Main,25,0,50.1100897,8.6822492
715,36697341,81377,Facharzt Orthopädie & Unfallchirurgie (m/w/d),München,13,0,48.1059924,11.4864487
716,36486991,60596,Assistenzärztin / Assistenzarzt für Neuropathologie - Edinger Institut,Frankfurt,22,0,50.0990675,8.6738622
717,43630264,52531,Industriemechaniker/ Mechatroniker/ Elektroniker als Instandhaltungsplaner (m/w/d),Übach-Palenberg,22,0,50.9253588,6.1177073
718,37563356,81379,Pflegehelfer (m/w/d),München,30,0,48.0966922,11.5286651
719,38984332,85774,Trainee Versicherungsmanagement im Bereich Sach Schaden (m/w/d),Unterföhring,26,0,48.1918216,11.6569449
720,36318628,91074,Project Manager - Strategy & Benchmarking Operations (m/w/d),Herzogenaurach,39,0,49.5782416,10.8819032
721,40893658,26215,Staatl. anerk. Erzieher (m/w/d),Wiefelstede,24,0,53.2551955,8.1133914
722,40029229,74321,Mechanischer 3D Layout Konstrukteur (m/w/d) von Lithium-Ionen-Batterie Anlagen,Bietigheim-Bissingen,19,0,48.95356820000001,9.1241772
723,40945155,71034,Experienced FPGA DevOps Engineer (m/f/d),Böblingen,24,0,48.6762593,8.9773145
724,38292928,76133,Network Security Engineer (m/w/d),Karlsruhe,49,0,49.00674979999999,8.393843
725,41431398,81925,Technischer Property Manager - Gewährleistungsmanagement (m/w/d),München,16,0,48.1626868,11.6217484
726,38627153,60598,Referent Instandhaltungsmanagement Technik (m/w/d),Frankfurt,11,0,50.08063,8.6780768
727,38462447,65933,Disponent / Einkäufer im Feinkosthandel (m/w/d),Frankfurt,24,0,50.0975161,8.5906678
728,43207952,48653,Pflegefachkräfte (w/m/d) für unseren standortübergreifenden Intensiv-Springerpool,Coesfeld,17,0,51.9097477,7.163694899999999
729,41289660,97486,Planer Versorgungstechnik HKLS (m/w/d),Königsberg,12,0,50.0808688,10.5664507
730,42370597,81829,Senior Piping Designer / Piping Engineer (m/w/d),München,22,0,48.1383204,11.6875629
731,36359188,53578,Anwendungstechniker im Bereich Gleitschalungsfertiger (m/w/d),Windhagen,20,0,50.63935660000001,7.3607637
732,38509122,50676,Mitarbeiter*in in der Finanzabteilung mit Schwerpunkt Controlling,Köln,28,0,50.9320995,6.953899799999999
733,35937469,12159,Teamleitung Finanzbuchhaltung (m/w/d),Berlin,21,0,52.4736908,13.3352069
734,40774749,70567,KFZ-Mechatroniker:in / KFZ-Mechaniker:in (m/w/d),Stuttgart,16,0,48.7226206,9.1584836
735,36561656,50667,Business Consultant Energiewirtschaft mit Schwerpunkt SAP FI-CA/ BRIM und S/4 Utilities (d/m/w),Köln,4,0,50.9386437,6.9538847
736,38940808,10178,Immobilienkauffrau / Immobilienkaufmann Wohnen (w/m/d),Berlin,50,0,52.5221879,13.4093313
737,36327377,68161,Genehmigungsmanager (m/w/d),Mannheim,19,0,49.4861656,8.470261599999999
738,36950912,22880,Projektleiter (m/w/d) für Holzfenster und -türen,Wedel,26,0,53.5936117,9.6991755
739,38093100,78056,Buchhalter (m/w/d) für Einzel- und Konzernabschluss,Villingen-Schwenningen,28,0,48.0542318,8.569969
740,36178801,86529,"Team Assistant (w/m/d) Human Resources, Finance & Information Management",Schrobenhausen,53,0,48.5629444,11.2322974
741,36979091,80538,"Fallmanager (m/w/d) für das Referat 25 ""Weitere Eingliederungshilfe für Erwachsene""",München,62,0,48.1445812,11.5895274
742,40097120,70435,Planer (m/w/d) Systemintegration/Software-Absicherung,Stuttgart,52,0,48.831531,9.1585988
743,40060083,82319,Stationsassistent (m/w/d) für die Intensivstation am Klinikum Starnberg,Starnberg,15,0,48.0090878,11.3258686
744,40893610,18184,Controller (m/w/d),Poppendorf,26,0,54.0730795,12.2121871
745,39499514,97424,Projektleiter (m/w/d) Technische Gebäudeausrüstung,Schweinfurt,34,0,50.0384109,10.2066168
746,43355020,33098,"Anlagenmechaniker (m/w/d) für Sanitär-, Lüftungs-, Heizungs- und Klimatechnik",Paderborn,33,0,51.7113515,8.754257599999999
747,36311190,68161,Einkäufer / Indirekter Einkauf (m/w/d),Mannheim,23,0,49.4861656,8.470261599999999
748,36705899,94469,"Professur ""Pflegewissenschaft mit Schwerpunkt Clinical Leadership""",Deggendorf,16,0,48.8456799,12.9779283
749,42728464,60327,Elektroinstallateur:in (m/w/d),Frankfurt,35,0,50.1005233,8.6544487
750,39568737,61352,Vertriebsassistenz (m/w/d) im Kunden-Center,Bad Homburg,29,0,50.2171728,8.6540643
751,37749188,61184,PHP-Developer (w/m/d),Karben,37,0,50.2341967,8.7724716
752,38904474,74321,Software Inbetriebnehmer Paint Shop (m/w/d),Bietigheim-Bissingen,23,0,48.95356820000001,9.1241772
753,36908231,20097,Sales and Retention Specialist (m/w/d),Hamburg,24,0,53.548038,10.0176986
754,38084957,23570,Maschinen- und Anlagenführer Produktion / Verpackung (m/w/d),Lübeck,43,0,53.9600008,10.8535751
755,40893451,47228,IT Business Analyst (m/w/d) - Schwerpunkt WMS,Duisburg,34,0,51.4237748,6.698690000000001
756,36524042,36039,"Teamkoordinator / Filialleiter (m/w/d) - Hambach-Dittelbrunn, Im Büttnerstrich",Fulda,29,0,50.5997419,9.676837
757,40893685,25832,Pädagogische Fachkraft (m/w/d) für den für den ambulanten Arbeitsbereich,Tönning,18,0,54.3149337,8.8902099
758,41456183,60431,Kundenbetreuer*in im Bereich unbarer Zahlungsverkehr,Frankfurt,21,0,50.1475439,8.6491154
759,39902579,94469,"Projektmitarbeiter:in (d/m/w) für das Projekt ""DeinHaus 4.0""",Deggendorf,54,0,48.8456799,12.9779283
760,36229010,23812,Junior Controller (m/w/d),Wahlstedt,27,0,53.9493924,10.1636762
761,37689106,85256,Sales Consultant (w/m/d) für B2B Software,Vierkirchen,26,0,48.36289679999999,11.4627847
762,39490816,21266,Architekt:in (w/m/d) der Fachrichtung Hochbau,Jesteburg,27,0,53.30690209999999,9.9538261
763,37691709,28816,Geräteführer mit kaufmännischem Hintergrund (m/w/d),Stuhr,23,0,53.0063839,8.7178351
764,43355753,30159,Vertragssachbearbeiter Industrielle Sachversicherungen (m/w/d),Hannover,20,0,52.3749839,9.7388153
765,35960877,91074,IT Data Engineer*in S/4HANA - Data Provisioning (m/w/d),Herzogenaurach,38,0,49.5782416,10.8819032
766,40763954,65307,Leiter (m/w/d) Technik,Bad Schwalbach,26,0,50.14110119999999,8.0571521
767,39423080,82234,Elektrotechniker/Mechatroniktechniker (m/w/d),Wessling,25,0,48.0745108,11.2737002
768,36599164,15910,Koch (m/w/d) - 38 Std. Woche,Krausnick,25,0,51.9901384,13.7777914
769,42369870,83301,(Senior) Engineer Elektronik (m/w/d) Systems Engineering / Produktentwicklung High-End-Messgeräte,Traunreut,19,0,47.9527301,12.5768605
770,41268627,69493,Bauingenieur (m/w/d) für die Planung im Hochbau,Hirschberg,21,0,49.5085013,8.6556961
771,43021144,42119,Abteilungsleiter Betriebswirtschaft (m/w/d),Wuppertal,55,0,51.241269,7.156482899999999
772,39162287,40477,Referent Strategie & Grundsatzfragen Compliance (m/w/d),Düsseldorf,14,0,51.2384606,6.7849768
773,43266300,40549,Senior Experte für den Immissionsschutz Mobilfunk & Umwelt (m/w/d) in Düsseldorf oder Berlin,Düsseldorf,27,0,51.233068,6.719087399999999
774,42486486,23564,"Bauingenieur, Architekt als Projektleiter (m/w/d) Bau",Lübeck,24,0,53.8596606,10.7167974
775,37889230,83313,Abteilungsleiter Finanzen (m/w/d),Siegsdorf,0,0,47.8073797,12.6648284
776,43677490,40227,"Sachgebietsleitung Wasserbau, stellvertretende Abteilungsleitung (m/w/d)",Düsseldorf,25,0,51.2153849,6.7975715
777,41265990,10785,Elektroniker Energie- und Gebäudetechnik / Energieanlagenelektroniker / Servicetechniker im Rechenzentrum (m/w/d),Berlin,14,0,52.50691150000001,13.3650508
778,40017851,70173,Baubetriebsstellenleiter*in (m/w/d),Stuttgart,52,0,48.78270269999999,9.1828631
779,39973715,95448,Netzwerkadministrator im Weitverkehrsnetz Nachrichtentechnik (m/w/d),Bayreuth,23,0,49.93635690000001,11.61009
780,36228766,84478,Controller (m/w/d) - Schwerpunkt Produktionscontrolling,Waldkraiburg,26,0,48.2017152,12.4202162
781,38955767,65933,Fachverkäufer im Feinkostmarkt / Fisch (m/w/d),Frankfurt,23,0,50.0975161,8.5906678
782,39460056,59494,Engineering Manager Leistungselektronik / Mittelspannung (m/w/d),Soest,18,0,51.56273119999999,8.0937324
783,41431313,85774,"Trainee - Versicherungsmanagement (Schwerpunkt: Controlling, Planning, Customer Centricity) (m/w/d)",Unterföhring,24,0,48.1918216,11.6569449
784,36197952,40231,Ingenieur oder Techniker (Fachgebiet Elektrotechnik o. ä.) als Bauüberwacher (m/w/d) Bereich Unterwerke,Düsseldorf,22,0,51.2134789,6.830239
785,41964596,76187,Experte Einkauf - Brennstoffe & Entsorgung (w/m/d),Karlsruhe,25,0,49.0388727,8.336478999999999
786,40142983,85737,Senior Projektmanager Bau (m/w/d),Ismaning,28,0,48.2320646,11.7067787
787,40137179,80538,Versicherungsexperte (m/w/d) Firmenversicherungen,München,26,0,48.1445812,11.5895274
788,38072554,58640,IT Solution Architect - Schwerpunkt PIM (m/w/d),Iserlohn,35,0,51.421991,7.67204
789,40529831,76131,Elektronikerin / Elektroniker (w/m/d) für Geräte und Systeme,Karlsruhe,22,0,49.0116951,8.4303821
790,40735292,52525,Automatisierungstechniker (w/m/d),Waldfeucht,21,0,51.04119379999999,6.104102
791,36028806,68165,Risikomanager/in für die Kapitalanlagen (m/w/d),Mannheim,31,0,49.4764407,8.4930737
792,42208226,60549,Administrator Windows Server (m/w/d) 992023021BPA,Frankfurt,30,0,50.041381,8.5800547
793,40730372,79539,Assistenzarzt für unsere Klinik Psychosomatische Medizin und Psychotherapie (w/m/d),Lörrach,9,0,47.6215172,7.662926499999999
794,37699117,70771,Baukauffrau:mann (m/w/d) im Verkehrswegebau,Leinfelden-Echterdingen,22,0,48.6885983,9.1410265
795,38846890,76131,Software Developer Java (m/w/d) Stream-Verarbeitung,Karlsruhe,43,0,49.0116951,8.4303821
796,40136520,80807,Elektroniker:in für Energie- und Gebäudetechnik (m/w/d),München,17,0,48.1865394,11.585399
797,40099158,69493,Projektleiter (m/w/d) Schlüsselfertigbau,Hirschberg,29,0,49.5085013,8.6556961
798,40325256,30625,Solution Engineer (m/w/d) für Telematik Infrastruktur,Hannover,16,0,52.3763832,9.8026933
799,38288487,76131,Wissenschaftler*in im Bereich inhaltsbasierte Videoanalyse (mit Promotionsoption),Karlsruhe,39,0,49.0116951,8.4303821
800,38001529,80797,Arzt in Weiterbildung / Assistenzarzt für Psychosomatische Medizin und Psychotherapie (m/w/d),München,13,0,48.1629382,11.5575332
801,43064799,60549,Storage Netapp Administrator (m/w/d),Frankfurt,18,0,50.041381,8.5800547
802,37036529,80339,Tourismuskaufmann (m/w/d),München,27,0,48.13596159999999,11.5382059
803,38887015,69168,Stv. Pflegerischer Stationsleiter (m/w/d),Wiesloch,18,0,49.2929847,8.6893085
804,40508265,8233,Projektingenieur (m/w/d) Verkauf,Treuen,20,0,50.5371205,12.313432
805,38846924,56073,Haustechniker (m/w/d) Bereich Heizung / Sanitär / Lüftung,Koblenz,25,0,50.3481531,7.5616813
806,40411577,81673,Sozialpädagoge (m/w/d) als Stellv. Einrichtungsleitung für die Übergangswohngemeinschaft in München-Pasing,München,26,0,48.1262953,11.6330728
807,36235897,13509,Senior Finance Manager (m/f/d) Real Estate Financing,Berlin,22,0,52.5890862,13.3032995
808,43344411,60327,Projektleitung TGA (m/w/d),Frankfurt,26,0,50.1005233,8.6544487
809,39891816,76344,IT-Systemadministrator (m/w/d) Schwerpunkt Outputmanagement,Eggenstein-Leopoldshafen,25,0,49.0922651,8.3714557
810,43382203,89420,Kundenberater Vertrieb (m/w/d) - Schwerpunkt Haustechnik,Höchstädt,30,0,48.6042127,10.5888474
811,38072028,70178,Kundenberater Lebensversicherung Firmen Innendienst (m/w/d),Stuttgart,37,0,48.7701449,9.1693201
812,37333262,55122,Graduate (m/w/d) EHS/International Graduate Program,Mainz,12,0,50.0017921,8.2361562
813,43467605,24837,Elektroniker Betriebstechnik (d/m/w) TK-Services Fernwirktechnik,Schleswig,27,0,54.5223028,9.5661514
814,41077393,1774,LEAN Manager (m/w/d),Klingenberg,16,0,50.87291039999999,13.526344
815,36407118,55131,Gesundheits- und Krankenpfleger*in/Pflegefachkraft (m/w/d),Mainz,13,0,49.9889241,8.2716688
816,36698250,10709,Application und Support Engineer* (m/w/d),Berlin,28,0,52.4922134,13.3037498
817,38001518,80797,Physiotherapeut (m/w/d),München,22,0,48.1629382,11.5575332
818,42653606,64283,Ingenieur/in (w/m/d) für die Planung von Ingenieurbauwerken und Projektsteuerung beim Mobilitäts- und Tiefbauamt,Darmstadt,25,0,49.8695282,8.6506852
819,42408926,95445,Mitarbeitende (m/w/d) für die Rufbereitschaft des Winterdienstes,Bayreuth,2,0,49.9517152,11.5608931
820,35805228,60327,Servicetechniker:in (m/w/d) HKLS,Frankfurt,22,0,50.1005233,8.6544487
821,43261160,65760,Policyberater*in (m/w/d) Klimawandel und öffentliche Finanzen,Eschborn,49,0,50.1500794,8.5803297
822,35856514,81925,Referent/in (m/w/d) vgl. 4. QE in der Projektarbeit des Referats 34,München,64,0,48.1626868,11.6217484
823,42810520,17291,Ingenieur (m/w/d) Apparatetechnik,Dauerthal,25,0,53.3193989,13.8724781
824,41714780,55131,Schulleitung Hebammenschule,Mainz,29,0,49.9889241,8.2716688
825,38747287,97318,Bordnetzentwickler im Bereich Vernetzung im Customer Engineering Center (m/w/d),Kitzingen,26,0,49.7451277,10.1875151
826,40524833,59425,KFZ-Mechatroniker (w/m/d) als Servicetechniker im Außendienst,Unna,27,0,51.5521918,7.7013158
827,38731184,45888,Bauingenieur*in (m/w/d) Diplom (FH)/Bachelor Betrieb,Gelsenkirchen,15,0,51.51763219999999,7.1202394
828,35780327,56242,Elektroniker (m/w/div.) für Betriebstechnik,Selters,19,0,50.53048260000001,7.7528226
829,41059932,26121,Projekteinkäufer (m/w/d),Oldenburg,30,0,53.153707,8.209595499999999
830,38949650,94032,Wissenschaftliche Mitarbeiterin / Wissenschaftlicher Mitarbeiter (m/w/d) am Kompetenzzentrum für Studium und Lehre (Koordination und Durchführung der Weiterbildungsveranstaltungen),Passau,31,0,48.5718453,13.4607296
831,40632388,60329,IT Application Operator (m/w/d),Frankfurt,36,0,50.10600059999999,8.6677324
832,39045101,90478,DataCenter-Engineers (w/m/d),Nürnberg,47,0,49.4429032,11.1044714
833,38294375,36419,Vertriebskundenbetreuer (m/w/d),Buttlar,23,0,50.7307152,9.9845877
834,36798836,22335,Mechatroniker (m/w/d) / Produktionstechniker (m/w/d),Hamburg,27,0,53.6283203,10.0058214
835,40798775,97070,Fachinformatikerin / Fachinformatiker (m/w/d) für den Bereich SAP Customizing und Verfahrenstechnik,Würzburg,29,0,49.7957583,9.933359500000002
836,38448924,73432,Projektmanager Mechanik (m/w/d),Aalen,17,0,48.82466729999999,10.172062
837,41532971,78052,Verfahrensmechaniker (m/w/x) - in Wechselschicht,Villingen-Schwenningen,32,0,48.0410653,8.4109794
838,40026400,21339,Medizinischer Technologe (w/m/d) für Laboratoriumsanalytik - MTL,Lüneburg,37,0,53.2536096,10.3885867
839,42108515,71672,Magazinkraft (m/w/d),Marbach a. Neckar,62,0,48.9370133,9.2672764
840,41872706,45476,Experte SCM - Transformation Distributionslogistik (m/w/d),Mülheim,34,0,51.44900819999999,6.854898899999999
841,41523538,21335,Stellvertretende Betriebsleitung (m/w/d) im Bereich Infrastruktur,Lüneburg,23,0,53.2130077,10.3924227
842,38737184,13053,"IT-Administrator / Systemadministrator (m/w/d) (Informatiker, Fachinformatiker für Systemintegration o. ä.)",Berlin,38,0,52.5559059,13.5055019
843,42912766,55129,Linienführer (m/w/d),Mainz,25,0,49.9406587,8.2607044
844,36488519,14974,Elektrotechniker/Informatiker (m/w/d) als Elektronik-/Entwicklungsingenieur (m/w/d),Ludwigsfelde,32,0,52.2780825,13.2569144
845,37242913,84137,Global Lead Buyer IT Infrastructure (m/w/d),Vilsbiburg,36,0,48.43777290000001,12.3430106
846,40692172,82319,Fachkrankenpfleger*in oder Gesundheits- und Krankenpfleger*in (m/w/d) für den ambulanten OP,Starnberg,19,0,48.0090878,11.3258686
847,39703664,78532,Leitung der Aufbereitungseinheit für Medizinprodukte (AEMP) (m/w/d),Tuttlingen,25,0,47.9709599,8.8117805
848,42409673,95445,Pflegefachkräfte (m/w/d) aus Nicht-EU Staaten zur Anerkennung in Deutschland,Bayreuth,4,0,49.9517152,11.5608931
849,36946374,59439,Strategic Procurement Manager (m/w/d),Holzwickede,19,0,51.48774239999999,7.635929799999999
850,38663248,55411,Techniker (m/w/d) Servicetechnik / Automatentechnik - Spielhalle,Bingen/Rhein,25,0,49.9437022,7.922532899999999
851,42386913,95445,Assistenzarzt (m/w/d) Orthopädie und Unfallchirurgie,Bayreuth,0,0,49.9517152,11.5608931
852,36405432,60596,(Fach-)Gesundheits- und Kinderkrankenpflegerin /  Kinderkrankenpfleger - Neonatologische Intensivstation,Frankfurt,16,0,50.0990675,8.6738622
853,38631056,91074,Ingenieur Cost Engineering (m/w/d),Herzogenaurach,19,0,49.5782416,10.8819032
854,38260861,81667,Erzieher (m/w/d) Kooperative Ganztagsbildung Pfanzeltplatz,München,28,0,48.1308934,11.599551
855,40507729,65195,Datenschutzbeauftragte/-r (m/w/d) Informationssicherheit & Datenschutzaudit,Wiesbaden,22,0,50.1053491,8.1976788
856,42652534,50679,Abrechner:in (m/w/d),Köln,21,0,50.934707,6.9759562
857,39759788,72762,Controller (m/w/d) mit Schwerpunkt ÖPNV,Reutlingen,20,0,48.47740109999999,9.1936152
858,34898935,10179,Projektingenieurin / Projektingenieur (w/m/d) für die Neubaustrecken Straßenbahn,Berlin,42,0,52.5121401,13.414046
859,39396674,53578,Buchhalter (w/m/d),Windhagen,22,0,50.63935660000001,7.3607637
860,38375975,65201,Principal Engineer Process- und Serviceautomation Puppet (m/w/d),Wiesbaden,20,0,50.049155,8.1878001
861,40508373,82256,IT Systemadministrator - Kommunikationssysteme (gn),Fürstenfeldbruck,35,0,48.17870689999999,11.23683
862,40382172,61352,Expert Technical Support IT (m/w/d),Bad Homburg,54,0,50.2171728,8.6540643
863,36311193,68161,Market Insights & Analytics Manager (m/w/d),Mannheim,8,0,49.4861656,8.470261599999999
864,43370935,72764,Beauftragter (m/w/i) klimaneutrale Kommunalverwaltung,Reutlingen,51,0,48.4933416,9.2147435
865,39220320,60323,Diplom-Ingenieur / Bachelor of Engineering Elektrotechnik (m/w/d),Frankfurt,18,0,50.1258328,8.662281300000002
866,39459851,21244,Pflegefachkräfte und Medizinische Fachangestellte (m/w/d) in der Dialyse,Buchholz,15,0,53.3176971,9.8694844
867,42134111,34414,Servicetechniker (m/w/d) für Aufzugsanlagen,Warburg,18,0,51.4756133,9.1309863
868,36326184,61352,IT-Prozessdesigner (m/w/d),Bad Homburg,43,0,50.2171728,8.6540643
869,38873038,70190,Sachbearbeiterin/Sachbearbeiter IT (w/m/d),Stuttgart,53,0,48.78939769999999,9.1962771
870,39384580,74172,Servicetechniker für elektronische Geräte (m/w/d),Neckarsulm-Obereisesheim,23,0,49.1942456,9.2351573
871,36744874,78476,Physiotherapeut:in (m/w/d) in Vollzeit,Allensbach,26,0,47.7147032,9.0691908
872,36509666,85774,Kundenberater PrivatSchutz (m/w/d),Unterföhring,16,0,48.1918216,11.6569449
873,36477632,65193,Business Analyst (m/w/d) IT Governance,Wiesbaden,25,0,50.0982399,8.247513399999999
874,36952268,79539,Medizinische Fachangestellte - MVZ Schopfheim (w/m/d),Lörrach,20,0,47.6215172,7.662926499999999
875,40375625,77933,Business Controlling Specialist  / Controller (m/w/d),Lahr,17,0,48.33915,7.8781487
876,35361973,77815,Entwickler Basissoftware Elektromobilität (m/w/d),Bühl,44,0,48.6824642,8.1500317
877,43441771,10178,Ingenieur (m/w/d) für Aufzugs- und Fördertechnik,Berlin,26,0,52.5221879,13.4093313
878,34776290,87527,Auftragsbearbeitung/Order Processing (m/w/d),Sonthofen,27,0,47.5092772,10.2861385
879,37358456,70173,Coach*in für die Umsetzung des Teilhabenchancengesetzes (m/w/d),Stuttgart,70,0,48.78270269999999,9.1828631
880,38697128,4002,Leiterin Anschlussnetze Projekte (w/m),Basel,27,0,,
881,37743439,19053,"Teamleiter für das Themengebiet ""Digitalisierung ÖPNV"" (m/w/d)",Schwerin,39,0,53.62479279999999,11.4041715
882,41251129,97922,Mitarbeiter (m/w/d) Technische Dokumentation,Lauda-Königshofen,15,0,49.5478594,9.729432100000002
883,39593379,91207,Sales Associate/Verkaufsberater TZ (m/w/d),Lauf,23,0,49.5402149,11.2752883
884,37405640,10623,Arzt / Ärztin oder Gesundheitswissenschaftler/-in (w/m/d),Berlin,57,0,52.5070391,13.3283954
885,36686358,74653,(Junior) Projektleiter (m/w/d) eCommerce,Ingelfingen,16,0,49.3043127,9.6979593
886,36866275,72764,Verwaltungsmitarbeiter (m/w/i) Gebäudemanagement,Reutlingen,35,0,48.4933416,9.2147435
887,37116510,24768,Arbeitsvorbereiter/in (m/w/d) Schlüsselfertig - Hochbau,Rendsburg,22,0,54.3063359,9.6429685
888,40690641,22607,Ingenieurin (w/m/d) als Gruppenleitung Zentrale Werkstätten (ZM),Hamburg,20,0,53.570291,9.8826238
889,37406710,68526,Projektleiter/Projektingenieur Elektrotechnik (m/w/d) - Anlagenbau und Infrastruktur,Ladenburg,26,0,49.482519,8.6181249
890,43256615,55131,Orthoptist*in (m/w/d),Mainz,20,0,49.9889241,8.2716688
891,43165511,27404,Projektingenieur*in mit Bauherrenfunktion (m/w/d),Zeven,44,0,53.2679831,9.2725744
892,37804230,1067,Ingenieur*in Systemführung Strom,Dresden,11,0,51.05754959999999,13.7170648
893,35908360,91074,Systemingenieur EMV für Fahrwerksysteme (m/w/d),Herzogenaurach,12,0,49.5782416,10.8819032
894,38877723,50968,Projektmanager (m/w/d) Smart Building Immobilienwirtschaft,Köln,30,0,50.9037692,6.968224999999999
895,38560653,84504,Elektroniker (*),Burgkirchen,18,0,,
896,37325598,79108,Softwareingenieur MSR / Gebäudeautomation (m/w/d),Freiburg,22,0,48.0430053,7.820593199999999
897,41561584,71034,Procurement Spezialist*in (m/f/d) für indirekten Einkauf und Vertragsmanagement,Böblingen,27,0,48.6762593,8.9773145
898,36691236,86153,Mechatroniker / Elektriker / Servicetechniker Autowaschanlagen (m/w/d) Raum Wiesbaden / Darmstadt / Rüsselsheim / Mainz,Augsburg,20,0,48.3808751,10.8936063
899,41839349,86920,IT Inhouse Consultant (m/w/d) Business Intelligence,Denklingen,37,0,47.8961513,10.8397181
900,42988593,94032,"Wissenschaftliche*r Mitarbeiter*in (m/w/d) am Lehrstuhl für Betriebswirtschaftslehre mit Schwerpunkt Strategisches Management, Innovation und Entrepreneurship",Passau,56,0,48.5718453,13.4607296
901,43266603,38640,Straßenwärter (w/m/d),Goslar,35,0,51.9113762,10.4381381
902,36551858,95448,Genehmigungsplaner (m/w/d),Bayreuth,30,0,49.93635690000001,11.61009
903,40513559,55131,Pflegefachkraft als Diabetesberater*in (m/w/d),Mainz,34,0,49.9889241,8.2716688
904,39816197,70176,Sozialarbeiter / Sozialpädagoge (m/w/d) Ambulant Betreutes Wohnen / Intensiv Betreutes Wohnen für psychisch kranke Menschen mit Teamleitungsfunktion,Stuttgart,28,0,48.7767989,9.1616733
905,39280788,55131,Administrative*r Assistent*in (m/w/d),Mainz,29,0,49.9889241,8.2716688
906,37877653,82024,Produktmanager*in Countermeasure in Survivability Systems (w/m/d),Taufkirchen,17,0,48.0389787,11.6265608
